{
"type": "FeatureCollection",
"crs": { "type": "name", "properties": { "name": "urn:ogc:def:crs:OGC:1.3:CRS84" } },
                                                                                
"features": [
{ "type": "Feature", "properties": { "施設名": "品川区役所", "施設名(英語)": "Shinagawa City Office", "カテゴリ": "区役所", "電話番号": "03-3777-1111", "郵便番号": "140-0005", "住所": "東京都品川区広町2-1-36", "緯度": 35.608837, "経度": 139.730240, "説明(日本語)": "区役所", "説明(英語)": null, "FAX番号": null, "開所時間帯": null, "開所時刻": null, "閉所時刻": null, "利用料金": null, "画像URL": null, "サムネイル画像URL": null, "ホームページアドレス": null, "創設日": null, "創設者": null }, "geometry": { "type": "Point", "coordinates": [ 139.73024, 35.608837 ] } },
{ "type": "Feature", "properties": { "施設名": "品川第一地域センター", "施設名(英語)": "Shinagawa Dai-ichi Community Ctr.", "カテゴリ": "地域センター", "電話番号": "03-3450-2000", "郵便番号": "140-0001", "住所": "東京都品川区北品川3-11-16", "緯度": 35.616681, "経度": 139.740080, "説明(日本語)": "地域センター", "説明(英語)": null, "FAX番号": null, "開所時間帯": null, "開所時刻": null, "閉所時刻": null, "利用料金": null, "画像URL": null, "サムネイル画像URL": null, "ホームページアドレス": null, "創設日": null, "創設者": null }, "geometry": { "type": "Point", "coordinates": [ 139.74008, 35.616681 ] } },
{ "type": "Feature", "properties": { "施設名": "品川第二地域センター", "施設名(英語)": "Shinagawa Dai-ni Community Ctr.", "カテゴリ": "地域センター", "電話番号": "03-3472-2000", "郵便番号": "140-0004", "住所": "東京都品川区南品川5-3-20", "緯度": 35.611373, "経度": 139.741290, "説明(日本語)": "地域センター", "説明(英語)": null, "FAX番号": null, "開所時間帯": null, "開所時刻": null, "閉所時刻": null, "利用料金": null, "画像URL": null, "サムネイル画像URL": null, "ホームページアドレス": null, "創設日": null, "創設者": null }, "geometry": { "type": "Point", "coordinates": [ 139.74129, 35.611373 ] } },
{ "type": "Feature", "properties": { "施設名": "大崎第一地域センター", "施設名(英語)": "Osaki Dai-ichi Community Ctr.", "カテゴリ": "地域センター", "電話番号": "03-3491-2000", "郵便番号": "141-0031", "住所": "東京都品川区西五反田3-6-3", "緯度": 35.627776, "経度": 139.716860, "説明(日本語)": "地域センター", "説明(英語)": null, "FAX番号": null, "開所時間帯": null, "開所時刻": null, "閉所時刻": null, "利用料金": null, "画像URL": null, "サムネイル画像URL": null, "ホームページアドレス": null, "創設日": null, "創設者": null }, "geometry": { "type": "Point", "coordinates": [ 139.71686, 35.627776 ] } },
{ "type": "Feature", "properties": { "施設名": "大崎第二地域センター", "施設名(英語)": "Osaki Dai-ni Community Ctr.", "カテゴリ": "地域センター", "電話番号": "03-3492-2000", "郵便番号": "141-0032", "住所": "東京都品川区大崎2-9-4", "緯度": 35.616945, "経度": 139.727570, "説明(日本語)": "地域センター", "説明(英語)": null, "FAX番号": null, "開所時間帯": null, "開所時刻": null, "閉所時刻": null, "利用料金": null, "画像URL": null, "サムネイル画像URL": null, "ホームページアドレス": null, "創設日": null, "創設者": null }, "geometry": { "type": "Point", "coordinates": [ 139.72757, 35.616945 ] } },
{ "type": "Feature", "properties": { "施設名": "大井第一地域センター", "施設名(英語)": "Oi Dai-ichi Community Ctr.", "カテゴリ": "地域センター", "電話番号": "03-3761-2000", "郵便番号": "140-0013", "住所": "東京都品川区南大井1-12-6", "緯度": 35.596306, "経度": 139.737590, "説明(日本語)": "地域センター", "説明(英語)": null, "FAX番号": null, "開所時間帯": null, "開所時刻": null, "閉所時刻": null, "利用料金": null, "画像URL": null, "サムネイル画像URL": null, "ホームページアドレス": null, "創設日": null, "創設者": null }, "geometry": { "type": "Point", "coordinates": [ 139.73759, 35.596306 ] } },
{ "type": "Feature", "properties": { "施設名": "大井第二地域センター", "施設名(英語)": "Oi Dai-ni Community Ctr.", "カテゴリ": "地域センター", "電話番号": "03-3772-2000", "郵便番号": "140-0014", "住所": "東京都品川区大井2-27-20", "緯度": 35.604091, "経度": 139.730380, "説明(日本語)": "地域センター", "説明(英語)": null, "FAX番号": null, "開所時間帯": null, "開所時刻": null, "閉所時刻": null, "利用料金": null, "画像URL": null, "サムネイル画像URL": null, "ホームページアドレス": null, "創設日": null, "創設者": null }, "geometry": { "type": "Point", "coordinates": [ 139.73038, 35.604091 ] } },
{ "type": "Feature", "properties": { "施設名": "大井第三地域センター", "施設名(英語)": "Oi Dai-san Community Ctr.", "カテゴリ": "地域センター", "電話番号": "03-3773-2000", "郵便番号": "140-0015", "住所": "東京都品川区西大井4-1-8", "緯度": 35.597669, "経度": 139.721080, "説明(日本語)": "地域センター", "説明(英語)": null, "FAX番号": null, "開所時間帯": null, "開所時刻": null, "閉所時刻": null, "利用料金": null, "画像URL": null, "サムネイル画像URL": null, "ホームページアドレス": null, "創設日": null, "創設者": null }, "geometry": { "type": "Point", "coordinates": [ 139.72108, 35.597669 ] } },
{ "type": "Feature", "properties": { "施設名": "荏原第一地域センター", "施設名(英語)": "Ebara Dai-ichi Community Ctr.", "カテゴリ": "地域センター", "電話番号": "03-3786-2000", "郵便番号": "142-0062", "住所": "東京都品川区小山3-22-3", "緯度": 35.619294, "経度": 139.705690, "説明(日本語)": "地域センター", "説明(英語)": null, "FAX番号": null, "開所時間帯": null, "開所時刻": null, "閉所時刻": null, "利用料金": null, "画像URL": null, "サムネイル画像URL": null, "ホームページアドレス": null, "創設日": null, "創設者": null }, "geometry": { "type": "Point", "coordinates": [ 139.70569, 35.619294 ] } },
{ "type": "Feature", "properties": { "施設名": "荏原第二地域センター", "施設名(英語)": "Ebara Dai-ni Community Ctr.", "カテゴリ": "地域センター", "電話番号": "03-3782-2000", "郵便番号": "142-0063", "住所": "東京都品川区荏原6-17-12", "緯度": 35.611062, "経度": 139.704420, "説明(日本語)": "地域センター", "説明(英語)": null, "FAX番号": null, "開所時間帯": null, "開所時刻": null, "閉所時刻": null, "利用料金": null, "画像URL": null, "サムネイル画像URL": null, "ホームページアドレス": null, "創設日": null, "創設者": null }, "geometry": { "type": "Point", "coordinates": [ 139.70442, 35.611062 ] } },
{ "type": "Feature", "properties": { "施設名": "荏原第三地域センター", "施設名(英語)": "Ebara Dai-san Community Ctr.", "カテゴリ": "地域センター", "電話番号": "03-3783-2000", "郵便番号": "142-0051", "住所": "東京都品川区平塚1-13-18", "緯度": 35.613392, "経度": 139.715410, "説明(日本語)": "地域センター", "説明(英語)": null, "FAX番号": null, "開所時間帯": null, "開所時刻": null, "閉所時刻": null, "利用料金": null, "画像URL": null, "サムネイル画像URL": null, "ホームページアドレス": null, "創設日": null, "創設者": null }, "geometry": { "type": "Point", "coordinates": [ 139.71541, 35.613392 ] } },
{ "type": "Feature", "properties": { "施設名": "荏原第四地域センター", "施設名(英語)": "Ebara Dai-yon Community Ctr.", "カテゴリ": "地域センター", "電話番号": "03-3784-2000", "郵便番号": "142-0053", "住所": "東京都品川区中延5-3-12", "緯度": 35.603740, "経度": 139.708360, "説明(日本語)": "地域センター", "説明(英語)": null, "FAX番号": null, "開所時間帯": null, "開所時刻": null, "閉所時刻": null, "利用料金": null, "画像URL": null, "サムネイル画像URL": null, "ホームページアドレス": null, "創設日": null, "創設者": null }, "geometry": { "type": "Point", "coordinates": [ 139.70836, 35.60374 ] } },
{ "type": "Feature", "properties": { "施設名": "荏原第五地域センター", "施設名(英語)": "Ebara Dai-go Community Ctr.", "カテゴリ": "地域センター", "電話番号": "03-3785-2000", "郵便番号": "142-0043", "住所": "東京都品川区二葉1-1-2", "緯度": 35.608200, "経度": 139.725730, "説明(日本語)": "地域センター", "説明(英語)": null, "FAX番号": null, "開所時間帯": null, "開所時刻": null, "閉所時刻": null, "利用料金": null, "画像URL": null, "サムネイル画像URL": null, "ホームページアドレス": null, "創設日": null, "創設者": null }, "geometry": { "type": "Point", "coordinates": [ 139.72573, 35.6082 ] } },
{ "type": "Feature", "properties": { "施設名": "八潮地域センター", "施設名(英語)": "Yashio Community Ctr.", "カテゴリ": "地域センター", "電話番号": "03-3799-2000", "郵便番号": "140-0003", "住所": "東京都品川区八潮5-10-27", "緯度": 35.600153, "経度": 139.751250, "説明(日本語)": "地域センター", "説明(英語)": null, "FAX番号": null, "開所時間帯": null, "開所時刻": null, "閉所時刻": null, "利用料金": null, "画像URL": null, "サムネイル画像URL": null, "ホームページアドレス": null, "創設日": null, "創設者": null }, "geometry": { "type": "Point", "coordinates": [ 139.75125, 35.600153 ] } },
{ "type": "Feature", "properties": { "施設名": "東大井区民集会所", "施設名(英語)": "Higashi-oi Citizens' Meeting Room", "カテゴリ": "集会所", "電話番号": "03-3765-2411", "郵便番号": "140-0011", "住所": "東京都品川区東大井2-16-12", "緯度": 35.600719, "経度": 139.741700, "説明(日本語)": "集会所", "説明(英語)": null, "FAX番号": null, "開所時間帯": null, "開所時刻": null, "閉所時刻": null, "利用料金": null, "画像URL": null, "サムネイル画像URL": null, "ホームページアドレス": null, "創設日": null, "創設者": null }, "geometry": { "type": "Point", "coordinates": [ 139.7417, 35.600719 ] } },
{ "type": "Feature", "properties": { "施設名": "荏原区民センター", "施設名(英語)": "Ebara Citizens' Ctr.", "カテゴリ": "集会所", "電話番号": "03-3788-7939", "郵便番号": "142-0063", "住所": "東京都品川区荏原5-6-5", "緯度": 35.614536, "経度": 139.702130, "説明(日本語)": "集会所", "説明(英語)": null, "FAX番号": null, "開所時間帯": null, "開所時刻": null, "閉所時刻": null, "利用料金": null, "画像URL": null, "サムネイル画像URL": null, "ホームページアドレス": null, "創設日": null, "創設者": null }, "geometry": { "type": "Point", "coordinates": [ 139.70213, 35.614536 ] } },
{ "type": "Feature", "properties": { "施設名": "防災センター", "施設名(英語)": "Disaster Prevention Ctr.", "カテゴリ": "防災センター", "電話番号": "03-5742-9098", "郵便番号": "140-0005", "住所": "東京都品川区広町2-1-36", "緯度": 35.608837, "経度": 139.730240, "説明(日本語)": "防災センター", "説明(英語)": null, "FAX番号": null, "開所時間帯": null, "開所時刻": null, "閉所時刻": null, "利用料金": null, "画像URL": null, "サムネイル画像URL": null, "ホームページアドレス": null, "創設日": null, "創設者": null }, "geometry": { "type": "Point", "coordinates": [ 139.73024, 35.608837 ] } },
{ "type": "Feature", "properties": { "施設名": "品川区環境情報活動センター", "施設名(英語)": "Environmental Information Service Ctr.", "カテゴリ": "環境学習・活動", "電話番号": "03-5742‐6533", "郵便番号": "140-0005", "住所": "東京都品川区広町2-1-36", "緯度": 35.608837, "経度": 139.730240, "説明(日本語)": "環境", "説明(英語)": null, "FAX番号": null, "開所時間帯": null, "開所時刻": null, "閉所時刻": null, "利用料金": null, "画像URL": null, "サムネイル画像URL": null, "ホームページアドレス": null, "創設日": null, "創設者": null }, "geometry": { "type": "Point", "coordinates": [ 139.73024, 35.608837 ] } },
{ "type": "Feature", "properties": { "施設名": "台場在宅介護支援センター", "施設名(英語)": "Daiba In Home Long Term Care Support Ctr.", "カテゴリ": "健康・福祉施設", "電話番号": "03-5479-8593", "郵便番号": "140-0001", "住所": "東京都品川区北品川3-11-16", "緯度": 35.616681, "経度": 139.740080, "説明(日本語)": "在宅介護支援センター", "説明(英語)": null, "FAX番号": null, "開所時間帯": null, "開所時刻": null, "閉所時刻": null, "利用料金": null, "画像URL": null, "サムネイル画像URL": null, "ホームページアドレス": null, "創設日": null, "創設者": null }, "geometry": { "type": "Point", "coordinates": [ 139.74008, 35.616681 ] } },
{ "type": "Feature", "properties": { "施設名": "東品川在宅介護支援センター", "施設名(英語)": "Higashi-shinagawa In Home Long Term Care Support Ctr.", "カテゴリ": "健康・福祉施設", "電話番号": "03-5479-2793", "郵便番号": "140-0002", "住所": "東京都品川区東品川3-1-5", "緯度": 35.617173, "経度": 139.747380, "説明(日本語)": "在宅介護支援センター", "説明(英語)": null, "FAX番号": null, "開所時間帯": null, "開所時刻": null, "閉所時刻": null, "利用料金": null, "画像URL": null, "サムネイル画像URL": null, "ホームページアドレス": null, "創設日": null, "創設者": null }, "geometry": { "type": "Point", "coordinates": [ 139.74738, 35.617173 ] } },
{ "type": "Feature", "properties": { "施設名": "東品川第二在宅介護支援センター", "施設名(英語)": "Higashi-shinagawa Dai-ni in Home Long Term Care Support Ctr.", "カテゴリ": "健康・福祉施設", "電話番号": "03-5783-2656", "郵便番号": "140-0002", "住所": "東京都品川区東品川3-27-25オフィス・イン品川3階", "緯度": 35.611290, "経度": 139.745930, "説明(日本語)": "在宅介護支援センター", "説明(英語)": null, "FAX番号": null, "開所時間帯": null, "開所時刻": null, "閉所時刻": null, "利用料金": null, "画像URL": null, "サムネイル画像URL": null, "ホームページアドレス": null, "創設日": null, "創設者": null }, "geometry": { "type": "Point", "coordinates": [ 139.74593, 35.61129 ] } },
{ "type": "Feature", "properties": { "施設名": "上大崎在宅介護支援センター", "施設名(英語)": "Kami-osaki In Home Long Term Care Support Ctr.", "カテゴリ": "健康・福祉施設", "電話番号": "03-3473-1831", "郵便番号": "141-0021", "住所": "東京都品川区上大崎1-3-12", "緯度": 35.634598, "経度": 139.722070, "説明(日本語)": "在宅介護支援センター", "説明(英語)": null, "FAX番号": null, "開所時間帯": null, "開所時刻": null, "閉所時刻": null, "利用料金": null, "画像URL": null, "サムネイル画像URL": null, "ホームページアドレス": null, "創設日": null, "創設者": null }, "geometry": { "type": "Point", "coordinates": [ 139.72207, 35.634598 ] } },
{ "type": "Feature", "properties": { "施設名": "西五反田在宅介護支援センター", "施設名(英語)": "Nishi-gotanda In Home Long Term Care Support Ctr.", "カテゴリ": "健康・福祉施設", "電話番号": "03-5740-6115", "郵便番号": "141-0031", "住所": "東京都品川区西五反田3-6-6", "緯度": 35.628118, "経度": 139.716960, "説明(日本語)": "在宅介護支援センター", "説明(英語)": null, "FAX番号": null, "開所時間帯": null, "開所時刻": null, "閉所時刻": null, "利用料金": null, "画像URL": null, "サムネイル画像URL": null, "ホームページアドレス": null, "創設日": null, "創設者": null }, "geometry": { "type": "Point", "coordinates": [ 139.71696, 35.628118 ] } },
{ "type": "Feature", "properties": { "施設名": "大崎在宅介護支援センター", "施設名(英語)": "Osaki In Home Long Term Care Support Ctr.", "カテゴリ": "健康・福祉施設", "電話番号": "03-3779-2981", "郵便番号": "141-0032", "住所": "東京都品川区大崎2-11-1", "緯度": 35.635856, "経度": 139.715360, "説明(日本語)": "在宅介護支援センター", "説明(英語)": null, "FAX番号": null, "開所時間帯": null, "開所時刻": null, "閉所時刻": null, "利用料金": null, "画像URL": null, "サムネイル画像URL": null, "ホームページアドレス": null, "創設日": null, "創設者": null }, "geometry": { "type": "Point", "coordinates": [ 139.71536, 35.635856 ] } },
{ "type": "Feature", "properties": { "施設名": "南大井在宅介護支援センター", "施設名(英語)": "Minami-oi In Home Long Term Care Support Ctr.", "カテゴリ": "健康・福祉施設", "電話番号": "03-5753-3902", "郵便番号": "140-0013", "住所": "東京都品川区南大井4-19-3", "緯度": 35.593234, "経度": 139.734660, "説明(日本語)": "在宅介護支援センター", "説明(英語)": null, "FAX番号": null, "開所時間帯": null, "開所時刻": null, "閉所時刻": null, "利用料金": null, "画像URL": null, "サムネイル画像URL": null, "ホームページアドレス": null, "創設日": null, "創設者": null }, "geometry": { "type": "Point", "coordinates": [ 139.73466, 35.593234 ] } },
{ "type": "Feature", "properties": { "施設名": "南大井第二在宅介護支援センター", "施設名(英語)": "Minami-oi Dai-ni In Home Long Term Care Support Ctr.", "カテゴリ": "健康・福祉施設", "電話番号": "03-5495-7083", "郵便番号": "140-0011", "住所": "東京都品川区東大井4-9-1", "緯度": 35.605300, "経度": 139.740330, "説明(日本語)": "在宅介護支援センター", "説明(英語)": null, "FAX番号": null, "開所時間帯": null, "開所時刻": null, "閉所時刻": null, "利用料金": null, "画像URL": null, "サムネイル画像URL": null, "ホームページアドレス": null, "創設日": null, "創設者": null }, "geometry": { "type": "Point", "coordinates": [ 139.74033, 35.6053 ] } },
{ "type": "Feature", "properties": { "施設名": "八潮在宅介護支援センター", "施設名(英語)": "Yashio In Home Long Term Care Support Ctr.", "カテゴリ": "健康・福祉施設", "電話番号": "03-3790-0470", "郵便番号": "140-0003", "住所": "東京都品川区八潮5-10-27", "緯度": 35.600153, "経度": 139.751250, "説明(日本語)": "在宅介護支援センター", "説明(英語)": null, "FAX番号": null, "開所時間帯": null, "開所時刻": null, "閉所時刻": null, "利用料金": null, "画像URL": null, "サムネイル画像URL": null, "ホームページアドレス": null, "創設日": null, "創設者": null }, "geometry": { "type": "Point", "coordinates": [ 139.75125, 35.600153 ] } },
{ "type": "Feature", "properties": { "施設名": "大井在宅介護支援センター", "施設名(英語)": "Oi In Home Long Term Care Support Ctr.", "カテゴリ": "健康・福祉施設", "電話番号": "03-5742-2723", "郵便番号": "140-0014", "住所": "東京都品川区大井4-14-8", "緯度": 35.601880, "経度": 139.732830, "説明(日本語)": "在宅介護支援センター", "説明(英語)": null, "FAX番号": null, "開所時間帯": null, "開所時刻": null, "閉所時刻": null, "利用料金": null, "画像URL": null, "サムネイル画像URL": null, "ホームページアドレス": null, "創設日": null, "創設者": null }, "geometry": { "type": "Point", "coordinates": [ 139.73283, 35.60188 ] } },
{ "type": "Feature", "properties": { "施設名": "大井第二在宅介護支援センター", "施設名(英語)": "Oi Dai-ni In Home Long Term Care Support Ctr.", "カテゴリ": "健康・福祉施設", "電話番号": "03-5743-2943", "郵便番号": "140-0014", "住所": "東京都品川区大井3-15-7", "緯度": 35.602366, "経度": 139.729540, "説明(日本語)": "在宅介護支援センター", "説明(英語)": null, "FAX番号": null, "開所時間帯": null, "開所時刻": null, "閉所時刻": null, "利用料金": null, "画像URL": null, "サムネイル画像URL": null, "ホームページアドレス": null, "創設日": null, "創設者": null }, "geometry": { "type": "Point", "coordinates": [ 139.72954, 35.602366 ] } },
{ "type": "Feature", "properties": { "施設名": "西大井在宅介護支援センター", "施設名(英語)": "Nishi-oi In Home Long Term Care Support Ctr.", "カテゴリ": "健康・福祉施設", "電話番号": "03-5743-6120", "郵便番号": "140-0015", "住所": "東京都品川区西大井2-4-4", "緯度": 35.599930, "経度": 139.722530, "説明(日本語)": "在宅介護支援センター", "説明(英語)": null, "FAX番号": null, "開所時間帯": null, "開所時刻": null, "閉所時刻": null, "利用料金": null, "画像URL": null, "サムネイル画像URL": null, "ホームページアドレス": null, "創設日": null, "創設者": null }, "geometry": { "type": "Point", "coordinates": [ 139.72253, 35.59993 ] } },
{ "type": "Feature", "properties": { "施設名": "荏原在宅介護支援センター", "施設名(英語)": "Ebara In Home Long Term Care Support Ctr.", "カテゴリ": "健康・福祉施設", "電話番号": "03-5750-3704", "郵便番号": "142-0063", "住所": "東京都品川区荏原2-9-6", "緯度": 35.617091, "経度": 139.711110, "説明(日本語)": "在宅介護支援センター", "説明(英語)": null, "FAX番号": null, "開所時間帯": null, "開所時刻": null, "閉所時刻": null, "利用料金": null, "画像URL": null, "サムネイル画像URL": null, "ホームページアドレス": null, "創設日": null, "創設者": null }, "geometry": { "type": "Point", "coordinates": [ 139.71111, 35.617091 ] } },
{ "type": "Feature", "properties": { "施設名": "小山台在宅介護支援センター", "施設名(英語)": "Koyamadai In Home Long Term Care Support Ctr.", "カテゴリ": "健康・福祉施設", "電話番号": "03-5794-8511", "郵便番号": "142-0061", "住所": "東京都品川区小山台1-4-1りんし21 3階", "緯度": 35.624337, "経度": 139.704470, "説明(日本語)": "在宅介護支援センター", "説明(英語)": null, "FAX番号": null, "開所時間帯": null, "開所時刻": null, "閉所時刻": null, "利用料金": null, "画像URL": null, "サムネイル画像URL": null, "ホームページアドレス": null, "創設日": null, "創設者": null }, "geometry": { "type": "Point", "coordinates": [ 139.70447, 35.624337 ] } },
{ "type": "Feature", "properties": { "施設名": "小山在宅介護支援センター", "施設名(英語)": "Koyama In Home Long Term Care Support Ctr.", "カテゴリ": "健康・福祉施設", "電話番号": "03-5749-7288", "郵便番号": "142-0062", "住所": "東京都品川区小山7-14-18", "緯度": 35.609006, "経度": 139.696480, "説明(日本語)": "在宅介護支援センター", "説明(英語)": null, "FAX番号": null, "開所時間帯": null, "開所時刻": null, "閉所時刻": null, "利用料金": null, "画像URL": null, "サムネイル画像URL": null, "ホームページアドレス": null, "創設日": null, "創設者": null }, "geometry": { "type": "Point", "coordinates": [ 139.69648, 35.609006 ] } },
{ "type": "Feature", "properties": { "施設名": "成幸在宅介護支援センター", "施設名(英語)": "Seiko In Home Long Term Care Support Ctr.", "カテゴリ": "健康・福祉施設", "電話番号": "03-3787-7493", "郵便番号": "142-0053", "住所": "東京都品川区中延1-8-7", "緯度": 35.612084, "経度": 139.711840, "説明(日本語)": "在宅介護支援センター", "説明(英語)": null, "FAX番号": null, "開所時間帯": null, "開所時刻": null, "閉所時刻": null, "利用料金": null, "画像URL": null, "サムネイル画像URL": null, "ホームページアドレス": null, "創設日": null, "創設者": null }, "geometry": { "type": "Point", "coordinates": [ 139.71184, 35.612084 ] } },
{ "type": "Feature", "properties": { "施設名": "中延在宅介護支援センター", "施設名(英語)": "Nakanobu In Home Long Term Care Support Ctr.", "カテゴリ": "健康・福祉施設", "電話番号": "03-3787-2167", "郵便番号": "142-0053", "住所": "東京都品川区中延6-8-8", "緯度": 35.601813, "経度": 139.711190, "説明(日本語)": "在宅介護支援センター", "説明(英語)": null, "FAX番号": null, "開所時間帯": null, "開所時刻": null, "閉所時刻": null, "利用料金": null, "画像URL": null, "サムネイル画像URL": null, "ホームページアドレス": null, "創設日": null, "創設者": null }, "geometry": { "type": "Point", "coordinates": [ 139.71119, 35.601813 ] } },
{ "type": "Feature", "properties": { "施設名": "大原在宅介護支援センター", "施設名(英語)": "Ohara In Home Long Term Care Support Ctr.", "カテゴリ": "健康・福祉施設", "電話番号": "03-5749-2531", "郵便番号": "142-0042", "住所": "東京都品川区豊町6-25-13", "緯度": 35.603807, "経度": 139.713610, "説明(日本語)": "在宅介護支援センター", "説明(英語)": null, "FAX番号": null, "開所時間帯": null, "開所時刻": null, "閉所時刻": null, "利用料金": null, "画像URL": null, "サムネイル画像URL": null, "ホームページアドレス": null, "創設日": null, "創設者": null }, "geometry": { "type": "Point", "coordinates": [ 139.71361, 35.603807 ] } },
{ "type": "Feature", "properties": { "施設名": "戸越台在宅介護支援センター", "施設名(英語)": "Togoshi In Home Long Term Care Support Ctr.", "カテゴリ": "健康・福祉施設", "電話番号": "03-5750-1053", "郵便番号": "142-0041", "住所": "東京都品川区戸越1-15-23", "緯度": 35.615706, "経度": 139.717590, "説明(日本語)": "在宅介護支援センター", "説明(英語)": null, "FAX番号": null, "開所時間帯": null, "開所時刻": null, "閉所時刻": null, "利用料金": null, "画像URL": null, "サムネイル画像URL": null, "ホームページアドレス": null, "創設日": null, "創設者": null }, "geometry": { "type": "Point", "coordinates": [ 139.71759, 35.615706 ] } },
{ "type": "Feature", "properties": { "施設名": "杜松在宅介護支援センター", "施設名(英語)": "Tosho In Home Long Term Care Support Ctr.", "カテゴリ": "健康・福祉施設", "電話番号": "03-5750-7707", "郵便番号": "142-0042", "住所": "東京都品川区豊町4-24-15", "緯度": 35.606135, "経度": 139.722760, "説明(日本語)": "在宅介護支援センター", "説明(英語)": null, "FAX番号": null, "開所時間帯": null, "開所時刻": null, "閉所時刻": null, "利用料金": null, "画像URL": null, "サムネイル画像URL": null, "ホームページアドレス": null, "創設日": null, "創設者": null }, "geometry": { "type": "Point", "coordinates": [ 139.72276, 35.606135 ] } },
{ "type": "Feature", "properties": { "施設名": "成幸ホーム", "施設名(英語)": "Santoku-kai 'Seiko Home'", "カテゴリ": "健康・福祉施設", "電話番号": "03-3787-3616", "郵便番号": "142-0053", "住所": "東京都品川区中延1-8-7", "緯度": 35.612084, "経度": 139.711840, "説明(日本語)": "特別養護老人ホーム", "説明(英語)": null, "FAX番号": null, "開所時間帯": null, "開所時刻": null, "閉所時刻": null, "利用料金": null, "画像URL": null, "サムネイル画像URL": null, "ホームページアドレス": null, "創設日": null, "創設者": null }, "geometry": { "type": "Point", "coordinates": [ 139.71184, 35.612084 ] } },
{ "type": "Feature", "properties": { "施設名": "かえで荘", "施設名(英語)": "Shinagawa Consolidated Welfare Ctr. 'Kaede-so'", "カテゴリ": "健康・福祉施設", "電話番号": "03-3790-4826", "郵便番号": "140-0003", "住所": "東京都品川区八潮5-1-1", "緯度": 35.605155, "経度": 139.752430, "説明(日本語)": "特別養護老人ホーム", "説明(英語)": null, "FAX番号": null, "開所時間帯": null, "開所時刻": null, "閉所時刻": null, "利用料金": null, "画像URL": null, "サムネイル画像URL": null, "ホームページアドレス": null, "創設日": null, "創設者": null }, "geometry": { "type": "Point", "coordinates": [ 139.75243, 35.605155 ] } },
{ "type": "Feature", "properties": { "施設名": "晴楓ホーム", "施設名(英語)": "Fukuei-kai 'Seifu Home'", "カテゴリ": "健康・福祉施設", "電話番号": "03-5479-2744", "郵便番号": "140-0002", "住所": "東京都品川区東品川3-1-8", "緯度": 35.617256, "経度": 139.746840, "説明(日本語)": "特別養護老人ホーム", "説明(英語)": null, "FAX番号": null, "開所時間帯": null, "開所時刻": null, "閉所時刻": null, "利用料金": null, "画像URL": null, "サムネイル画像URL": null, "ホームページアドレス": null, "創設日": null, "創設者": null }, "geometry": { "type": "Point", "coordinates": [ 139.74684, 35.617256 ] } },
{ "type": "Feature", "properties": { "施設名": "戸越台特別養護老人ホーム", "施設名(英語)": "Togoshidai Intensive Care Home for the Elderly", "カテゴリ": "健康・福祉施設", "電話番号": "03-5750-1054", "郵便番号": "142-0041", "住所": "東京都品川区戸越1-15-23", "緯度": 35.615706, "経度": 139.717590, "説明(日本語)": "特別養護老人ホーム", "説明(英語)": null, "FAX番号": null, "開所時間帯": null, "開所時刻": null, "閉所時刻": null, "利用料金": null, "画像URL": null, "サムネイル画像URL": null, "ホームページアドレス": null, "創設日": null, "創設者": null }, "geometry": { "type": "Point", "coordinates": [ 139.71759, 35.615706 ] } },
{ "type": "Feature", "properties": { "施設名": "荏原特別養護老人ホーム", "施設名(英語)": "Ebara Intensive Care Home for the Elderly", "カテゴリ": "健康・福祉施設", "電話番号": "03-5750-2941", "郵便番号": "142-0063", "住所": "東京都品川区荏原2-9-6", "緯度": 35.617091, "経度": 139.711110, "説明(日本語)": "特別養護老人ホーム", "説明(英語)": null, "FAX番号": null, "開所時間帯": null, "開所時刻": null, "閉所時刻": null, "利用料金": null, "画像URL": null, "サムネイル画像URL": null, "ホームページアドレス": null, "創設日": null, "創設者": null }, "geometry": { "type": "Point", "coordinates": [ 139.71111, 35.617091 ] } },
{ "type": "Feature", "properties": { "施設名": "中延特別養護老人ホーム", "施設名(英語)": "Nakanobu Intensive Care Home for the Elderly", "カテゴリ": "健康・福祉施設", "電話番号": "03-3787-2951", "郵便番号": "142-0053", "住所": "東京都品川区中延6-8-8", "緯度": 35.601813, "経度": 139.711190, "説明(日本語)": "特別養護老人ホーム", "説明(英語)": null, "FAX番号": null, "開所時間帯": null, "開所時刻": null, "閉所時刻": null, "利用料金": null, "画像URL": null, "サムネイル画像URL": null, "ホームページアドレス": null, "創設日": null, "創設者": null }, "geometry": { "type": "Point", "coordinates": [ 139.71119, 35.601813 ] } },
{ "type": "Feature", "properties": { "施設名": "ロイヤルサニー", "施設名(英語)": "Shunko-fukushi-kai 'Royal Sunny'", "カテゴリ": "健康・福祉施設", "電話番号": "03-5743-6111", "郵便番号": "140-0015", "住所": "東京都品川区西大井2-4-4", "緯度": 35.599930, "経度": 139.722530, "説明(日本語)": "特別養護老人ホーム", "説明(英語)": null, "FAX番号": null, "開所時間帯": null, "開所時刻": null, "閉所時刻": null, "利用料金": null, "画像URL": null, "サムネイル画像URL": null, "ホームページアドレス": null, "創設日": null, "創設者": null }, "geometry": { "type": "Point", "coordinates": [ 139.72253, 35.59993 ] } },
{ "type": "Feature", "properties": { "施設名": "八潮南特別養護老人ホーム", "施設名(英語)": null, "カテゴリ": "健康・福祉施設", "電話番号": "03-5755-9360", "郵便番号": "140-0003", "住所": "東京都品川区八潮5-9-2", "緯度": 35.598721, "経度": 139.752670, "説明(日本語)": "特別養護老人ホーム", "説明(英語)": null, "FAX番号": null, "開所時間帯": null, "開所時刻": null, "閉所時刻": null, "利用料金": null, "画像URL": null, "サムネイル画像URL": null, "ホームページアドレス": null, "創設日": null, "創設者": null }, "geometry": { "type": "Point", "coordinates": [ 139.75267, 35.598721 ] } },
{ "type": "Feature", "properties": { "施設名": "杜松 特別養護老人ホーム", "施設名(英語)": "Tosho Intensive Care Home for the Elderly", "カテゴリ": "健康・福祉施設", "電話番号": "03-6426-8213", "郵便番号": "142-0042", "住所": "東京都品川区豊町4-24-15", "緯度": 35.605987, "経度": 139.722580, "説明(日本語)": "特別養護老人ホーム", "説明(英語)": null, "FAX番号": null, "開所時間帯": null, "開所時刻": null, "閉所時刻": null, "利用料金": null, "画像URL": null, "サムネイル画像URL": null, "ホームページアドレス": null, "創設日": null, "創設者": null }, "geometry": { "type": "Point", "coordinates": [ 139.72258, 35.605987 ] } },
{ "type": "Feature", "properties": { "施設名": "ケアセンター南大井", "施設名(英語)": "Sakura-kai \"Care Ctr. Minami-oi\"", "カテゴリ": "健康・福祉施設", "電話番号": "03-5753-3901", "郵便番号": "140-0013", "住所": "東京都品川区南大井5-19-1", "緯度": 35.594659, "経度": 139.733980, "説明(日本語)": "老人保健施設", "説明(英語)": null, "FAX番号": null, "開所時間帯": null, "開所時刻": null, "閉所時刻": null, "利用料金": null, "画像URL": null, "サムネイル画像URL": null, "ホームページアドレス": null, "創設日": null, "創設者": null }, "geometry": { "type": "Point", "coordinates": [ 139.73398, 35.594659 ] } },
{ "type": "Feature", "properties": { "施設名": "東海ホーム", "施設名(英語)": "Fukuei-kai 'Tokai Home'", "カテゴリ": "健康・福祉施設", "電話番号": "03-5479-2944", "郵便番号": "140-0002", "住所": "東京都品川区東品川3-1-8", "緯度": 35.617256, "経度": 139.746840, "説明(日本語)": "軽費老人ホーム", "説明(英語)": null, "FAX番号": null, "開所時間帯": null, "開所時刻": null, "閉所時刻": null, "利用料金": null, "画像URL": null, "サムネイル画像URL": null, "ホームページアドレス": null, "創設日": null, "創設者": null }, "geometry": { "type": "Point", "coordinates": [ 139.74684, 35.617256 ] } },
{ "type": "Feature", "properties": { "施設名": "さくらハイツ南大井", "施設名(英語)": "Sakura-kai 'Sakura Heights Minami-oi'", "カテゴリ": "健康・福祉施設", "電話番号": "03-5753-3900", "郵便番号": "140-0013", "住所": "東京都品川区南大井5-19-1", "緯度": 35.594659, "経度": 139.733980, "説明(日本語)": "ケアハウス", "説明(英語)": null, "FAX番号": null, "開所時間帯": null, "開所時刻": null, "閉所時刻": null, "利用料金": null, "画像URL": null, "サムネイル画像URL": null, "ホームページアドレス": null, "創設日": null, "創設者": null }, "geometry": { "type": "Point", "coordinates": [ 139.73398, 35.594659 ] } },
{ "type": "Feature", "properties": { "施設名": "さくらハイツ西五反田", "施設名(英語)": "Sakura-kai 'Sakura Heights Nishi-gotanda'", "カテゴリ": "健康・福祉施設", "電話番号": "03-5434-7831", "郵便番号": "141-0031", "住所": "東京都品川区西五反田3-6-6", "緯度": 35.628118, "経度": 139.716960, "説明(日本語)": "ケアハウス", "説明(英語)": null, "FAX番号": null, "開所時間帯": null, "開所時刻": null, "閉所時刻": null, "利用料金": null, "画像URL": null, "サムネイル画像URL": null, "ホームページアドレス": null, "創設日": null, "創設者": null }, "geometry": { "type": "Point", "coordinates": [ 139.71696, 35.628118 ] } },
{ "type": "Feature", "properties": { "施設名": "ケアホーム西五反田", "施設名(英語)": "Sakura-kai 'Care Home Nishi-gotanda'", "カテゴリ": "健康・福祉施設", "電話番号": "03-5434-7831", "郵便番号": "141-0031", "住所": "東京都品川区西五反田3-6-6", "緯度": 35.628118, "経度": 139.716960, "説明(日本語)": "ケアハウス", "説明(英語)": null, "FAX番号": null, "開所時間帯": null, "開所時刻": null, "閉所時刻": null, "利用料金": null, "画像URL": null, "サムネイル画像URL": null, "ホームページアドレス": null, "創設日": null, "創設者": null }, "geometry": { "type": "Point", "coordinates": [ 139.71696, 35.628118 ] } },
{ "type": "Feature", "properties": { "施設名": "ケアホーム東大井", "施設名(英語)": "Angel Help 'Care Home Higashi-oi'", "カテゴリ": "健康・福祉施設", "電話番号": "03-5783-0753", "郵便番号": "140-0011", "住所": "東京都品川区東大井5-8-12", "緯度": 35.607638, "経度": 139.737900, "説明(日本語)": "ケアハウス", "説明(英語)": null, "FAX番号": null, "開所時間帯": null, "開所時刻": null, "閉所時刻": null, "利用料金": null, "画像URL": null, "サムネイル画像URL": null, "ホームページアドレス": null, "創設日": null, "創設者": null }, "geometry": { "type": "Point", "coordinates": [ 139.7379, 35.607638 ] } },
{ "type": "Feature", "properties": { "施設名": "東品川シルバーセンター", "施設名(英語)": "Higashi-shinagawa Silver Center  (Senior Citizens' Ctr.)", "カテゴリ": "健康・福祉施設", "電話番号": "03-3472-2944", "郵便番号": "140-0002", "住所": "東京都品川区東品川3-32-10", "緯度": 35.614193, "経度": 139.750750, "説明(日本語)": "シルバーセンター", "説明(英語)": null, "FAX番号": null, "開所時間帯": null, "開所時刻": null, "閉所時刻": null, "利用料金": null, "画像URL": null, "サムネイル画像URL": null, "ホームページアドレス": null, "創設日": null, "創設者": null }, "geometry": { "type": "Point", "coordinates": [ 139.75075, 35.614193 ] } },
{ "type": "Feature", "properties": { "施設名": "北品川シルバーセンター", "施設名(英語)": "Kaka-shinagawa Silver Center (Senior Citizens' Ctr.)", "カテゴリ": "健康・福祉施設", "電話番号": "03-3471-6507", "郵便番号": "140-0001", "住所": "東京都品川区北品川1-29-12", "緯度": 35.620533, "経度": 139.741770, "説明(日本語)": "シルバーセンター", "説明(英語)": null, "FAX番号": null, "開所時間帯": null, "開所時刻": null, "閉所時刻": null, "利用料金": null, "画像URL": null, "サムネイル画像URL": null, "ホームページアドレス": null, "創設日": null, "創設者": null }, "geometry": { "type": "Point", "coordinates": [ 139.74177, 35.620533 ] } },
{ "type": "Feature", "properties": { "施設名": "南品川シルバーセンター", "施設名(英語)": "Minami-shinagawa Silver Center (Senior Citizens' Ctr.)", "カテゴリ": "健康・福祉施設", "電話番号": "03-3471-7000", "郵便番号": "140-0004", "住所": "東京都品川区南品川5-10-3", "緯度": 35.610215, "経度": 139.739840, "説明(日本語)": "シルバーセンター", "説明(英語)": null, "FAX番号": null, "開所時間帯": null, "開所時刻": null, "閉所時刻": null, "利用料金": null, "画像URL": null, "サムネイル画像URL": null, "ホームページアドレス": null, "創設日": null, "創設者": null }, "geometry": { "type": "Point", "coordinates": [ 139.73984, 35.610215 ] } },
{ "type": "Feature", "properties": { "施設名": "五反田シルバーセンター", "施設名(英語)": "Gotanda Silver Center (Senior Citizens' Ctr.)", "カテゴリ": "健康・福祉施設", "電話番号": "03-3445-0296", "郵便番号": "141-0022", "住所": "東京都品川区東五反田2-15-6", "緯度": 35.621933, "経度": 139.729440, "説明(日本語)": "シルバーセンター", "説明(英語)": null, "FAX番号": null, "開所時間帯": null, "開所時刻": null, "閉所時刻": null, "利用料金": null, "画像URL": null, "サムネイル画像URL": null, "ホームページアドレス": null, "創設日": null, "創設者": null }, "geometry": { "type": "Point", "coordinates": [ 139.72944, 35.621933 ] } },
{ "type": "Feature", "properties": { "施設名": "上大崎シルバーセンター", "施設名(英語)": "Kami-osaki Silver Center (Senior Citizens' Ctr.)", "カテゴリ": "健康・福祉施設", "電話番号": "03-3449-1750", "郵便番号": "141-0021", "住所": "東京都品川区上大崎1-3-12", "緯度": 35.634598, "経度": 139.722070, "説明(日本語)": "シルバーセンター", "説明(英語)": null, "FAX番号": null, "開所時間帯": null, "開所時刻": null, "閉所時刻": null, "利用料金": null, "画像URL": null, "サムネイル画像URL": null, "ホームページアドレス": null, "創設日": null, "創設者": null }, "geometry": { "type": "Point", "coordinates": [ 139.72207, 35.634598 ] } },
{ "type": "Feature", "properties": { "施設名": "西五反田シルバーセンター", "施設名(英語)": "Nishi-gotanda Silver Center (Senior Citizens' Ctr.)", "カテゴリ": "健康・福祉施設", "電話番号": "03-3493-0076", "郵便番号": "141-0031", "住所": "東京都品川区西五反田3-9-10", "緯度": 35.626535, "経度": 139.716910, "説明(日本語)": "シルバーセンター", "説明(英語)": null, "FAX番号": null, "開所時間帯": null, "開所時刻": null, "閉所時刻": null, "利用料金": null, "画像URL": null, "サムネイル画像URL": null, "ホームページアドレス": null, "創設日": null, "創設者": null }, "geometry": { "type": "Point", "coordinates": [ 139.71691, 35.626535 ] } },
{ "type": "Feature", "properties": { "施設名": "平塚シルバーセンター", "施設名(英語)": "Hiratsuka Silver Center (Senior Citizens' Ctr.)", "カテゴリ": "健康・福祉施設", "電話番号": "03-3782-1369", "郵便番号": "142-0051", "住所": "東京都品川区平塚2-10-20", "緯度": 35.616914, "経度": 139.713960, "説明(日本語)": "シルバーセンター", "説明(英語)": null, "FAX番号": null, "開所時間帯": null, "開所時刻": null, "閉所時刻": null, "利用料金": null, "画像URL": null, "サムネイル画像URL": null, "ホームページアドレス": null, "創設日": null, "創設者": null }, "geometry": { "type": "Point", "coordinates": [ 139.71396, 35.616914 ] } },
{ "type": "Feature", "properties": { "施設名": "後地シルバーセンター", "施設名(英語)": "Ushiroji Silver Center  (Senior Citizens' Ctr.)", "カテゴリ": "健康・福祉施設", "電話番号": "03-3781-6506", "郵便番号": "142-0062", "住所": "東京都品川区小山2-9-19", "緯度": 35.620630, "経度": 139.709200, "説明(日本語)": "シルバーセンター", "説明(英語)": null, "FAX番号": null, "開所時間帯": null, "開所時刻": null, "閉所時刻": null, "利用料金": null, "画像URL": null, "サムネイル画像URL": null, "ホームページアドレス": null, "創設日": null, "創設者": null }, "geometry": { "type": "Point", "coordinates": [ 139.7092, 35.62063 ] } },
{ "type": "Feature", "properties": { "施設名": "小山シルバーセンター", "施設名(英語)": "Koyama Silver Center (Senior Citizens' Ctr.)", "カテゴリ": "健康・福祉施設", "電話番号": "03-3785-6420", "郵便番号": "142-0062", "住所": "東京都品川区小山5-17-18", "緯度": 35.614836, "経度": 139.701440, "説明(日本語)": "シルバーセンター", "説明(英語)": null, "FAX番号": null, "開所時間帯": null, "開所時刻": null, "閉所時刻": null, "利用料金": null, "画像URL": null, "サムネイル画像URL": null, "ホームページアドレス": null, "創設日": null, "創設者": null }, "geometry": { "type": "Point", "coordinates": [ 139.70144, 35.614836 ] } },
{ "type": "Feature", "properties": { "施設名": "旗の台シルバーセンター", "施設名(英語)": "Hatanodai Silver Center (Senior Citizens' Ctr.)", "カテゴリ": "健康・福祉施設", "電話番号": "03-3783-7479", "郵便番号": "142-0064", "住所": "東京都品川区旗の台4-13-1", "緯度": 35.602585, "経度": 139.704670, "説明(日本語)": "シルバーセンター", "説明(英語)": null, "FAX番号": null, "開所時間帯": null, "開所時刻": null, "閉所時刻": null, "利用料金": null, "画像URL": null, "サムネイル画像URL": null, "ホームページアドレス": null, "創設日": null, "創設者": null }, "geometry": { "type": "Point", "coordinates": [ 139.70467, 35.602585 ] } },
{ "type": "Feature", "properties": { "施設名": "ゆたかシルバーセンター", "施設名(英語)": "Yutaka Silver Center (Senior Citizens' Ctr.)", "カテゴリ": "健康・福祉施設", "電話番号": "03-3781-5424", "郵便番号": "142-0042", "住所": "東京都品川区豊町3-2-15", "緯度": 35.608337, "経度": 139.719610, "説明(日本語)": "シルバーセンター", "説明(英語)": null, "FAX番号": null, "開所時間帯": null, "開所時刻": null, "閉所時刻": null, "利用料金": null, "画像URL": null, "サムネイル画像URL": null, "ホームページアドレス": null, "創設日": null, "創設者": null }, "geometry": { "type": "Point", "coordinates": [ 139.71961, 35.608337 ] } },
{ "type": "Feature", "properties": { "施設名": "西大井いきいきセンター", "施設名(英語)": "Nishi-oi Lively Ctr.", "カテゴリ": "健康・福祉施設", "電話番号": "03-5718-1330", "郵便番号": "140-0015", "住所": "東京都品川区西大井2-5-21", "緯度": 35.599255, "経度": 139.721860, "説明(日本語)": "シルバーセンター", "説明(英語)": null, "FAX番号": null, "開所時間帯": null, "開所時刻": null, "閉所時刻": null, "利用料金": null, "画像URL": null, "サムネイル画像URL": null, "ホームページアドレス": null, "創設日": null, "創設者": null }, "geometry": { "type": "Point", "coordinates": [ 139.72186, 35.599255 ] } },
{ "type": "Feature", "properties": { "施設名": "関ヶ原シルバーセンター", "施設名(英語)": "Sekigahara Silver Center  (Senior Citizens' Ctr.)", "カテゴリ": "健康・福祉施設", "電話番号": "03-3765-7022", "郵便番号": "140-0011", "住所": "東京都品川区東大井6-11-11", "緯度": 35.601883, "経度": 139.736510, "説明(日本語)": "シルバーセンター", "説明(英語)": null, "FAX番号": null, "開所時間帯": null, "開所時刻": null, "閉所時刻": null, "利用料金": null, "画像URL": null, "サムネイル画像URL": null, "ホームページアドレス": null, "創設日": null, "創設者": null }, "geometry": { "type": "Point", "coordinates": [ 139.73651, 35.601883 ] } },
{ "type": "Feature", "properties": { "施設名": "南大井シルバーセンター", "施設名(英語)": "Minami-oi Silver Center  (Senior Citizens' Ctr.)", "カテゴリ": "健康・福祉施設", "電話番号": "03-3761-6540", "郵便番号": "140-0013", "住所": "東京都品川区南大井3-7-13", "緯度": 35.591828, "経度": 139.734300, "説明(日本語)": "シルバーセンター", "説明(英語)": null, "FAX番号": null, "開所時間帯": null, "開所時刻": null, "閉所時刻": null, "利用料金": null, "画像URL": null, "サムネイル画像URL": null, "ホームページアドレス": null, "創設日": null, "創設者": null }, "geometry": { "type": "Point", "coordinates": [ 139.7343, 35.591828 ] } },
{ "type": "Feature", "properties": { "施設名": "品川区シルバー人材センター", "施設名(英語)": "Shinagawa-ku Silver Work Contract Ctr. for the Aged", "カテゴリ": "健康・福祉施設", "電話番号": "03-3450-0711", "郵便番号": "140-0001", "住所": "東京都品川区北品川3-11-16", "緯度": 35.616681, "経度": 139.740080, "説明(日本語)": "品川区シルバー人材センター", "説明(英語)": null, "FAX番号": null, "開所時間帯": null, "開所時刻": null, "閉所時刻": null, "利用料金": null, "画像URL": null, "サムネイル画像URL": null, "ホームページアドレス": null, "創設日": null, "創設者": null }, "geometry": { "type": "Point", "coordinates": [ 139.74008, 35.616681 ] } },
{ "type": "Feature", "properties": { "施設名": "品川区シルバー人材センター東大井支所", "施設名(英語)": null, "カテゴリ": "健康・福祉施設", "電話番号": "03-3450-0713", "郵便番号": "140-0011", "住所": "東京都品川区東大井1-4-14", "緯度": 35.605677, "経度": 139.745060, "説明(日本語)": "品川区シルバー人材センター", "説明(英語)": null, "FAX番号": null, "開所時間帯": null, "開所時刻": null, "閉所時刻": null, "利用料金": null, "画像URL": null, "サムネイル画像URL": null, "ホームページアドレス": null, "創設日": null, "創設者": null }, "geometry": { "type": "Point", "coordinates": [ 139.74506, 35.605677 ] } },
{ "type": "Feature", "properties": { "施設名": "品川区シルバー人材センター荏原支部", "施設名(英語)": null, "カテゴリ": "健康・福祉施設", "電話番号": "03-5751-3334", "郵便番号": "142-0063", "住所": "東京都品川区荏原2-16-18", "緯度": 35.616736, "経度": 139.708920, "説明(日本語)": "品川区シルバー人材センター", "説明(英語)": null, "FAX番号": null, "開所時間帯": null, "開所時刻": null, "閉所時刻": null, "利用料金": null, "画像URL": null, "サムネイル画像URL": null, "ホームページアドレス": null, "創設日": null, "創設者": null }, "geometry": { "type": "Point", "coordinates": [ 139.70892, 35.616736 ] } },
{ "type": "Feature", "properties": { "施設名": "品川区シルバー人材センターゆたか分室", "施設名(英語)": null, "カテゴリ": "健康・福祉施設", "電話番号": "03-3785-5600", "郵便番号": "142-0042", "住所": "東京都品川区豊町3-2-15", "緯度": 35.608337, "経度": 139.719610, "説明(日本語)": "品川区シルバー人材センター", "説明(英語)": null, "FAX番号": null, "開所時間帯": null, "開所時刻": null, "閉所時刻": null, "利用料金": null, "画像URL": null, "サムネイル画像URL": null, "ホームページアドレス": null, "創設日": null, "創設者": null }, "geometry": { "type": "Point", "coordinates": [ 139.71961, 35.608337 ] } },
{ "type": "Feature", "properties": { "施設名": "品川介護福祉専門学校", "施設名(英語)": "Shinagawa Sch. of Community Care Worker", "カテゴリ": "健康・福祉施設", "電話番号": "03-5498-6364", "郵便番号": "141-0033", "住所": "東京都品川区西品川1-28-3", "緯度": 35.609295, "経度": 139.727690, "説明(日本語)": "品川介護福祉専門学校", "説明(英語)": null, "FAX番号": null, "開所時間帯": null, "開所時刻": null, "閉所時刻": null, "利用料金": null, "画像URL": null, "サムネイル画像URL": null, "ホームページアドレス": null, "創設日": null, "創設者": null }, "geometry": { "type": "Point", "coordinates": [ 139.72769, 35.609295 ] } },
{ "type": "Feature", "properties": { "施設名": "品川区社会福祉協議会", "施設名(英語)": "Shinagawa City Council of Social Welfare", "カテゴリ": "健康・福祉施設", "電話番号": "03-5718-7171", "郵便番号": "140-0014", "住所": "東京都品川区大井1-14-1 大井1丁目共同ビル", "緯度": 35.607696, "経度": 139.731460, "説明(日本語)": "品川区社会福祉協議会", "説明(英語)": null, "FAX番号": null, "開所時間帯": null, "開所時刻": null, "閉所時刻": null, "利用料金": null, "画像URL": null, "サムネイル画像URL": null, "ホームページアドレス": null, "創設日": null, "創設者": null }, "geometry": { "type": "Point", "coordinates": [ 139.73146, 35.607696 ] } },
{ "type": "Feature", "properties": { "施設名": "医師会立品川区訪問看護ステーション", "施設名(英語)": "Medical Association's Shinagawa City Home Call Nurse Sta.", "カテゴリ": "健康・福祉施設", "電話番号": "03-3472-5518", "郵便番号": "140-0001", "住所": "東京都品川区北品川3-7-25品川区医師会館2階", "緯度": 35.617095, "経度": 139.740640, "説明(日本語)": "訪問看護ステーション", "説明(英語)": null, "FAX番号": null, "開所時間帯": null, "開所時刻": null, "閉所時刻": null, "利用料金": null, "画像URL": null, "サムネイル画像URL": null, "ホームページアドレス": null, "創設日": null, "創設者": null }, "geometry": { "type": "Point", "coordinates": [ 139.74064, 35.617095 ] } },
{ "type": "Feature", "properties": { "施設名": "医師会立荏原訪問看護ステーション", "施設名(英語)": "Medical Association's Ebara Home Call Nurse Sta.", "カテゴリ": "健康・福祉施設", "電話番号": "03-3783-2360", "郵便番号": "142-0053", "住所": "東京都品川区中延2-6-5荏原医師会新館3階", "緯度": 35.611542, "経度": 139.712260, "説明(日本語)": "訪問看護ステーション", "説明(英語)": null, "FAX番号": null, "開所時間帯": null, "開所時刻": null, "閉所時刻": null, "利用料金": null, "画像URL": null, "サムネイル画像URL": null, "ホームページアドレス": null, "創設日": null, "創設者": null }, "geometry": { "type": "Point", "coordinates": [ 139.71226, 35.611542 ] } },
{ "type": "Feature", "properties": { "施設名": "社会福祉法人さくら会南大井訪問看護ステーション", "施設名(英語)": "Sakura-kai 'Minami-oi Home Call Nurse Sta.'", "カテゴリ": "健康・福祉施設", "電話番号": "03-5495-7084", "郵便番号": "140-0011", "住所": "東京都品川区東大井4-9-1品川区大井林町高齢者複合施設内", "緯度": 35.605300, "経度": 139.740330, "説明(日本語)": "訪問看護ステーション", "説明(英語)": null, "FAX番号": null, "開所時間帯": null, "開所時刻": null, "閉所時刻": null, "利用料金": null, "画像URL": null, "サムネイル画像URL": null, "ホームページアドレス": null, "創設日": null, "創設者": null }, "geometry": { "type": "Point", "coordinates": [ 139.74033, 35.6053 ] } },
{ "type": "Feature", "properties": { "施設名": "セコム医療システム株式会社セコム高輪訪問看護ステーション", "施設名(英語)": null, "カテゴリ": "健康・福祉施設", "電話番号": "03-6408-2568", "郵便番号": "108-0074", "住所": "東京都港区高輪3-25-27アベニュー高輪1306", "緯度": 35.631471, "経度": 139.737870, "説明(日本語)": "訪問看護ステーション", "説明(英語)": null, "FAX番号": null, "開所時間帯": null, "開所時刻": null, "閉所時刻": null, "利用料金": null, "画像URL": null, "サムネイル画像URL": null, "ホームページアドレス": null, "創設日": null, "創設者": null }, "geometry": { "type": "Point", "coordinates": [ 139.73787, 35.631471 ] } },
{ "type": "Feature", "properties": { "施設名": "医療法人財団城南福祉医療協会西品川訪問看護ステーション", "施設名(英語)": null, "カテゴリ": "健康・福祉施設", "電話番号": "03-3779-5020", "郵便番号": "141-0033", "住所": "東京都品川区西品川1-8-22", "緯度": 35.612542, "経度": 139.730360, "説明(日本語)": "訪問看護ステーション", "説明(英語)": null, "FAX番号": null, "開所時間帯": null, "開所時刻": null, "閉所時刻": null, "利用料金": null, "画像URL": null, "サムネイル画像URL": null, "ホームページアドレス": null, "創設日": null, "創設者": null }, "geometry": { "type": "Point", "coordinates": [ 139.73036, 35.612542 ] } },
{ "type": "Feature", "properties": { "施設名": "医療法人社団リゾーム慶和会小山台訪問看護ステーション", "施設名(英語)": null, "カテゴリ": "健康・福祉施設", "電話番号": "03-3715-7366", "郵便番号": "142-0061", "住所": "東京都品川区小山台1-24-4カーサエスペランサ102号", "緯度": 35.621704, "経度": 139.706000, "説明(日本語)": "訪問看護ステーション", "説明(英語)": null, "FAX番号": null, "開所時間帯": null, "開所時刻": null, "閉所時刻": null, "利用料金": null, "画像URL": null, "サムネイル画像URL": null, "ホームページアドレス": null, "創設日": null, "創設者": null }, "geometry": { "type": "Point", "coordinates": [ 139.706, 35.621704 ] } },
{ "type": "Feature", "properties": { "施設名": "ソフィアメディ株式会社ソフィア訪問看護ステーション小山", "施設名(英語)": null, "カテゴリ": "健康・福祉施設", "電話番号": "03-5749-1657", "郵便番号": "142-0062", "住所": "東京都品川区小山7-10-1ロワール洗足102", "緯度": 35.610094, "経度": 139.696090, "説明(日本語)": "訪問看護ステーション", "説明(英語)": null, "FAX番号": null, "開所時間帯": null, "開所時刻": null, "閉所時刻": null, "利用料金": null, "画像URL": null, "サムネイル画像URL": null, "ホームページアドレス": null, "創設日": null, "創設者": null }, "geometry": { "type": "Point", "coordinates": [ 139.69609, 35.610094 ] } },
{ "type": "Feature", "properties": { "施設名": "医療法人財団城南福祉医療協会ゆたか訪問看護ステーション", "施設名(英語)": null, "カテゴリ": "健康・福祉施設", "電話番号": "03-5751-3952", "郵便番号": "142-0042", "住所": "東京都品川区豊町4-3-20", "緯度": 35.606815, "経度": 139.719770, "説明(日本語)": "訪問看護ステーション", "説明(英語)": null, "FAX番号": null, "開所時間帯": null, "開所時刻": null, "閉所時刻": null, "利用料金": null, "画像URL": null, "サムネイル画像URL": null, "ホームページアドレス": null, "創設日": null, "創設者": null }, "geometry": { "type": "Point", "coordinates": [ 139.71977, 35.606815 ] } },
{ "type": "Feature", "properties": { "施設名": "株式会社仁済訪問看護ステーション品川", "施設名(英語)": null, "カテゴリ": "健康・福祉施設", "電話番号": "03-5718-1828", "郵便番号": "140-0014", "住所": "東京都品川区大井1-32-14HFビル1階", "緯度": 35.605077, "経度": 139.730680, "説明(日本語)": "訪問看護ステーション", "説明(英語)": null, "FAX番号": null, "開所時間帯": null, "開所時刻": null, "閉所時刻": null, "利用料金": null, "画像URL": null, "サムネイル画像URL": null, "ホームページアドレス": null, "創設日": null, "創設者": null }, "geometry": { "type": "Point", "coordinates": [ 139.73068, 35.605077 ] } },
{ "type": "Feature", "properties": { "施設名": "株式会社ライフケアサービスセンター訪問看護ステーション", "施設名(英語)": null, "カテゴリ": "健康・福祉施設", "電話番号": "03-3471-3908", "郵便番号": "140-0001", "住所": "東京都品川区北品川3-3-3東和ビル3階", "緯度": 35.621761, "経度": 139.738750, "説明(日本語)": "訪問看護ステーション", "説明(英語)": null, "FAX番号": null, "開所時間帯": null, "開所時刻": null, "閉所時刻": null, "利用料金": null, "画像URL": null, "サムネイル画像URL": null, "ホームページアドレス": null, "創設日": null, "創設者": null }, "geometry": { "type": "Point", "coordinates": [ 139.73875, 35.621761 ] } },
{ "type": "Feature", "properties": { "施設名": "有限会社アローズ元気訪問看護ステーション", "施設名(英語)": null, "カテゴリ": "健康・福祉施設", "電話番号": "03-5715-5386", "郵便番号": "140-0001", "住所": "東京都品川区北品川2-9-21", "緯度": 35.618292, "経度": 139.743210, "説明(日本語)": "訪問看護ステーション", "説明(英語)": null, "FAX番号": null, "開所時間帯": null, "開所時刻": null, "閉所時刻": null, "利用料金": null, "画像URL": null, "サムネイル画像URL": null, "ホームページアドレス": null, "創設日": null, "創設者": null }, "geometry": { "type": "Point", "coordinates": [ 139.74321, 35.618292 ] } },
{ "type": "Feature", "properties": { "施設名": "ソフィアメディ株式会社ソフィア訪問看護ステーション不動前", "施設名(英語)": null, "カテゴリ": "健康・福祉施設", "電話番号": "03-6847-1616", "郵便番号": "141-0021", "住所": "東京都品川区上大崎3-11-2メゾン花房山2 202号室", "緯度": 35.630612, "経度": 139.717470, "説明(日本語)": "訪問看護ステーション", "説明(英語)": null, "FAX番号": null, "開所時間帯": null, "開所時刻": null, "閉所時刻": null, "利用料金": null, "画像URL": null, "サムネイル画像URL": null, "ホームページアドレス": null, "創設日": null, "創設者": null }, "geometry": { "type": "Point", "coordinates": [ 139.71747, 35.630612 ] } },
{ "type": "Feature", "properties": { "施設名": "有限会社新井湯訪問看護ステーション・湯〜亀", "施設名(英語)": null, "カテゴリ": "健康・福祉施設", "電話番号": "03-5788-9655", "郵便番号": "142-0064", "住所": "東京都品川区旗の台4-5-17", "緯度": 35.602562, "経度": 139.705780, "説明(日本語)": "訪問看護ステーション", "説明(英語)": null, "FAX番号": null, "開所時間帯": null, "開所時刻": null, "閉所時刻": null, "利用料金": null, "画像URL": null, "サムネイル画像URL": null, "ホームページアドレス": null, "創設日": null, "創設者": null }, "geometry": { "type": "Point", "coordinates": [ 139.70578, 35.602562 ] } },
{ "type": "Feature", "properties": { "施設名": "セントケア東京株式会社セントケア訪問看護ステーションあい", "施設名(英語)": null, "カテゴリ": "健康・福祉施設", "電話番号": "03-6429-1011", "郵便番号": "140-0014", "住所": "東京都品川区大井4-10-6ベルリッチ小松2階", "緯度": 35.603052, "経度": 139.734190, "説明(日本語)": "訪問看護ステーション", "説明(英語)": null, "FAX番号": null, "開所時間帯": null, "開所時刻": null, "閉所時刻": null, "利用料金": null, "画像URL": null, "サムネイル画像URL": null, "ホームページアドレス": null, "創設日": null, "創設者": null }, "geometry": { "type": "Point", "coordinates": [ 139.73419, 35.603052 ] } },
{ "type": "Feature", "properties": { "施設名": "ソフィアメディ株式会社ソフィア訪問看護ステーション豊町", "施設名(英語)": null, "カテゴリ": "健康・福祉施設", "電話番号": "03-6865-1030", "郵便番号": "142-0042", "住所": "東京都品川区豊町1-6-11プレジール101", "緯度": 35.613350, "経度": 139.722510, "説明(日本語)": "訪問看護ステーション", "説明(英語)": null, "FAX番号": null, "開所時間帯": null, "開所時刻": null, "閉所時刻": null, "利用料金": null, "画像URL": null, "サムネイル画像URL": null, "ホームページアドレス": null, "創設日": null, "創設者": null }, "geometry": { "type": "Point", "coordinates": [ 139.72251, 35.61335 ] } },
{ "type": "Feature", "properties": { "施設名": "株式会社ファインナースステーションもも", "施設名(英語)": null, "カテゴリ": "健康・福祉施設", "電話番号": "03-6721-6540", "郵便番号": "141-0022", "住所": "東京都品川区東五反田2-19-4坂本ビル2階", "緯度": 35.625135, "経度": 139.729550, "説明(日本語)": "訪問看護ステーション", "説明(英語)": null, "FAX番号": null, "開所時間帯": null, "開所時刻": null, "閉所時刻": null, "利用料金": null, "画像URL": null, "サムネイル画像URL": null, "ホームページアドレス": null, "創設日": null, "創設者": null }, "geometry": { "type": "Point", "coordinates": [ 139.72955, 35.625135 ] } },
{ "type": "Feature", "properties": { "施設名": "サポしながわ", "施設名(英語)": "Sapo Shinagawa (Free Job Placement Office)", "カテゴリ": "健康・福祉施設", "電話番号": "03-5498-6357", "郵便番号": "141-0033", "住所": "東京都品川区西品川1-28-3　品川区立中小企業センター1階", "緯度": 35.609295, "経度": 139.727690, "説明(日本語)": "無料職業紹介所", "説明(英語)": null, "FAX番号": null, "開所時間帯": null, "開所時刻": null, "閉所時刻": null, "利用料金": null, "画像URL": null, "サムネイル画像URL": null, "ホームページアドレス": null, "創設日": null, "創設者": null }, "geometry": { "type": "Point", "coordinates": [ 139.72769, 35.609295 ] } },
{ "type": "Feature", "properties": { "施設名": "品川保健センター", "施設名(英語)": "Shinagawa Health Service Center", "カテゴリ": "健康・保健施設", "電話番号": "03-3474-2225", "郵便番号": "140-0001", "住所": "東京都品川区北品川3-11-22", "緯度": 35.616606, "経度": 139.740690, "説明(日本語)": "保健センター", "説明(英語)": null, "FAX番号": null, "開所時間帯": null, "開所時刻": null, "閉所時刻": null, "利用料金": null, "画像URL": null, "サムネイル画像URL": null, "ホームページアドレス": null, "創設日": null, "創設者": null }, "geometry": { "type": "Point", "coordinates": [ 139.74069, 35.616606 ] } },
{ "type": "Feature", "properties": { "施設名": "荏原保健センター", "施設名(英語)": "Ebara Health Service Center", "カテゴリ": "健康・保健施設", "電話番号": "03-3788-2000", "郵便番号": "142-0063", "住所": "東京都品川区荏原2-9-6", "緯度": 35.617091, "経度": 139.711110, "説明(日本語)": "保健センター", "説明(英語)": null, "FAX番号": null, "開所時間帯": null, "開所時刻": null, "閉所時刻": null, "利用料金": null, "画像URL": null, "サムネイル画像URL": null, "ホームページアドレス": null, "創設日": null, "創設者": null }, "geometry": { "type": "Point", "coordinates": [ 139.71111, 35.617091 ] } },
{ "type": "Feature", "properties": { "施設名": "大井保健センター", "施設名(英語)": "Oi Health Service Center", "カテゴリ": "健康・保健施設", "電話番号": "03-3772-2666", "郵便番号": "140-0014", "住所": "東京都品川区大井2-27-20", "緯度": 35.604091, "経度": 139.730380, "説明(日本語)": "保健センター", "説明(英語)": null, "FAX番号": null, "開所時間帯": null, "開所時刻": null, "閉所時刻": null, "利用料金": null, "画像URL": null, "サムネイル画像URL": null, "ホームページアドレス": null, "創設日": null, "創設者": null }, "geometry": { "type": "Point", "coordinates": [ 139.73038, 35.604091 ] } },
{ "type": "Feature", "properties": { "施設名": "荏原健康センター", "施設名(英語)": "Ebara Health Ctr.", "カテゴリ": "健康・保健施設", "電話番号": "03-3788-7017", "郵便番号": "142-0063", "住所": "東京都品川区荏原2-9-6", "緯度": 35.617091, "経度": 139.711110, "説明(日本語)": "健康センター", "説明(英語)": null, "FAX番号": null, "開所時間帯": null, "開所時刻": null, "閉所時刻": null, "利用料金": null, "画像URL": null, "サムネイル画像URL": null, "ホームページアドレス": null, "創設日": null, "創設者": null }, "geometry": { "type": "Point", "coordinates": [ 139.71111, 35.617091 ] } },
{ "type": "Feature", "properties": { "施設名": "品川健康センター", "施設名(英語)": "Shinagawa Health Ctr.", "カテゴリ": "健康・保健施設", "電話番号": "03-5782-8507", "郵便番号": "140-0001", "住所": "東京都品川区北品川3-11-22", "緯度": 35.616606, "経度": 139.740690, "説明(日本語)": "健康センター", "説明(英語)": null, "FAX番号": null, "開所時間帯": null, "開所時刻": null, "閉所時刻": null, "利用料金": null, "画像URL": null, "サムネイル画像URL": null, "ホームページアドレス": null, "創設日": null, "創設者": null }, "geometry": { "type": "Point", "coordinates": [ 139.74069, 35.616606 ] } },
{ "type": "Feature", "properties": { "施設名": "区立心身障害者福祉会館", "施設名(英語)": "Welfare Ctr. for the Handicapped", "カテゴリ": "障害者（児）福祉施設", "電話番号": "03-3785-3322", "郵便番号": "142-0064", "住所": "東京都品川区旗の台5-2-2", "緯度": 35.605004, "経度": 139.700420, "説明(日本語)": "自立訓練（機能訓練）（身）、自立訓練（生活訓練） （知）、生活介護", "説明(英語)": null, "FAX番号": null, "開所時間帯": null, "開所時刻": null, "閉所時刻": null, "利用料金": null, "画像URL": null, "サムネイル画像URL": null, "ホームページアドレス": null, "創設日": null, "創設者": null }, "geometry": { "type": "Point", "coordinates": [ 139.70042, 35.605004 ] } },
{ "type": "Feature", "properties": { "施設名": "区立西大井福祉園", "施設名(英語)": "Nishi-oi Welfare Home", "カテゴリ": "障害者（児）福祉施設", "電話番号": "03-3777-0294", "郵便番号": "140-0015", "住所": "東京都品川区西大井5-7-24", "緯度": 35.599260, "経度": 139.716620, "説明(日本語)": "生活介護（身・知）、就労継続支援B型（身・知）", "説明(英語)": null, "FAX番号": null, "開所時間帯": null, "開所時刻": null, "閉所時刻": null, "利用料金": null, "画像URL": null, "サムネイル画像URL": null, "ホームページアドレス": null, "創設日": null, "創設者": null }, "geometry": { "type": "Point", "coordinates": [ 139.71662, 35.59926 ] } },
{ "type": "Feature", "properties": { "施設名": "区立かがやき園", "施設名(英語)": "Kagayaki Gakuen Sch.", "カテゴリ": "障害者（児）福祉施設", "電話番号": "03-3772-8171", "郵便番号": "140-0015", "住所": "東京都品川区西大井6-2-14", "緯度": 35.600838, "経度": 139.715500, "説明(日本語)": "生活介護（知）、施設入所支援（知）、短期入所", "説明(英語)": null, "FAX番号": null, "開所時間帯": null, "開所時刻": null, "閉所時刻": null, "利用料金": null, "画像URL": null, "サムネイル画像URL": null, "ホームページアドレス": null, "創設日": null, "創設者": null }, "geometry": { "type": "Point", "coordinates": [ 139.7155, 35.600838 ] } },
{ "type": "Feature", "properties": { "施設名": "（社福）品川総合福祉センターかもめ園", "施設名(英語)": null, "カテゴリ": "障害者（児）福祉施設", "電話番号": "03-3790-4729", "郵便番号": "140-0003", "住所": "東京都品川区八潮5-1-1", "緯度": 35.605155, "経度": 139.752430, "説明(日本語)": "生活介護（身・知）、施設入所支援（身・知）、短期入所", "説明(英語)": null, "FAX番号": null, "開所時間帯": null, "開所時刻": null, "閉所時刻": null, "利用料金": null, "画像URL": null, "サムネイル画像URL": null, "ホームページアドレス": null, "創設日": null, "創設者": null }, "geometry": { "type": "Point", "coordinates": [ 139.75243, 35.605155 ] } },
{ "type": "Feature", "properties": { "施設名": "（社福）品川総合福祉センターさつき", "施設名(英語)": null, "カテゴリ": "障害者（児）福祉施設", "電話番号": "03-3790-0593", "郵便番号": "140-0003", "住所": "東京都品川区八潮5-3-8", "緯度": 35.603200, "経度": 139.751930, "説明(日本語)": "就労継続支援B型（身・知）", "説明(英語)": null, "FAX番号": null, "開所時間帯": null, "開所時刻": null, "閉所時刻": null, "利用料金": null, "画像URL": null, "サムネイル画像URL": null, "ホームページアドレス": null, "創設日": null, "創設者": null }, "geometry": { "type": "Point", "coordinates": [ 139.75193, 35.6032 ] } },
{ "type": "Feature", "properties": { "施設名": "（社福）品川総合福祉センター サンかもめ", "施設名(英語)": null, "カテゴリ": "障害者（児）福祉施設", "電話番号": "03-5755-7817", "郵便番号": "140-0003", "住所": "東京都品川区八潮5-10-27", "緯度": 35.600153, "経度": 139.751250, "説明(日本語)": "生活介護（身・知）", "説明(英語)": null, "FAX番号": null, "開所時間帯": null, "開所時刻": null, "閉所時刻": null, "利用料金": null, "画像URL": null, "サムネイル画像URL": null, "ホームページアドレス": null, "創設日": null, "創設者": null }, "geometry": { "type": "Point", "coordinates": [ 139.75125, 35.600153 ] } },
{ "type": "Feature", "properties": { "施設名": "（社福）福栄会 第一しいのき学園", "施設名(英語)": "Dai-ichi Siinoki Gakuen Sch.", "カテゴリ": "障害者（児）福祉施設", "電話番号": "03-5479-2941", "郵便番号": "140-0002", "住所": "東京都品川区東品川3-1-8", "緯度": 35.617256, "経度": 139.746840, "説明(日本語)": "生活介護（身・知）", "説明(英語)": null, "FAX番号": null, "開所時間帯": null, "開所時刻": null, "閉所時刻": null, "利用料金": null, "画像URL": null, "サムネイル画像URL": null, "ホームページアドレス": null, "創設日": null, "創設者": null }, "geometry": { "type": "Point", "coordinates": [ 139.74684, 35.617256 ] } },
{ "type": "Feature", "properties": { "施設名": "（社福）福栄会 第二しいのき学園", "施設名(英語)": "Dai-ni Siinoki Gakuen Sch.", "カテゴリ": "障害者（児）福祉施設", "電話番号": "03-5479-2941", "郵便番号": "140-0002", "住所": "東京都品川区東品川3-1-8", "緯度": 35.617256, "経度": 139.746840, "説明(日本語)": "就労継続支援B型（身・知）", "説明(英語)": null, "FAX番号": null, "開所時間帯": null, "開所時刻": null, "閉所時刻": null, "利用料金": null, "画像URL": null, "サムネイル画像URL": null, "ホームページアドレス": null, "創設日": null, "創設者": null }, "geometry": { "type": "Point", "coordinates": [ 139.74684, 35.617256 ] } },
{ "type": "Feature", "properties": { "施設名": "（社福）福栄会 南品川むつみ園", "施設名(英語)": null, "カテゴリ": "障害者（児）福祉施設", "電話番号": "03-5495-7970", "郵便番号": "140-0004", "住所": "東京都品川区南品川5-16-25", "緯度": 35.607107, "経度": 139.742870, "説明(日本語)": "生活介護", "説明(英語)": null, "FAX番号": null, "開所時間帯": null, "開所時刻": null, "閉所時刻": null, "利用料金": null, "画像URL": null, "サムネイル画像URL": null, "ホームページアドレス": null, "創設日": null, "創設者": null }, "geometry": { "type": "Point", "coordinates": [ 139.74287, 35.607107 ] } },
{ "type": "Feature", "properties": { "施設名": "（社福）げんき", "施設名(英語)": null, "カテゴリ": "障害者（児）福祉施設", "電話番号": "03-5496-2536", "郵便番号": "141-0032", "住所": "東京都品川区大崎4-11-12", "緯度": 35.618580, "経度": 139.721400, "説明(日本語)": "就労移行", "説明(英語)": null, "FAX番号": null, "開所時間帯": null, "開所時刻": null, "閉所時刻": null, "利用料金": null, "画像URL": null, "サムネイル画像URL": null, "ホームページアドレス": null, "創設日": null, "創設者": null }, "geometry": { "type": "Point", "coordinates": [ 139.7214, 35.61858 ] } },
{ "type": "Feature", "properties": { "施設名": "区立発達障害者支援施設  「ぷらーす」", "施設名(英語)": null, "カテゴリ": "障害者（児）福祉施設", "電話番号": "03-5793-7095", "郵便番号": "141-0021", "住所": "東京都品川区上大崎1-20-12", "緯度": 35.633101, "経度": 139.722180, "説明(日本語)": "就労継続Ａ、就労継続Ｂ", "説明(英語)": null, "FAX番号": null, "開所時間帯": null, "開所時刻": null, "閉所時刻": null, "利用料金": null, "画像URL": null, "サムネイル画像URL": null, "ホームページアドレス": null, "創設日": null, "創設者": null }, "geometry": { "type": "Point", "coordinates": [ 139.72218, 35.633101 ] } },
{ "type": "Feature", "properties": { "施設名": "ジョブザ品川区", "施設名(英語)": null, "カテゴリ": "障害者（児）福祉施設", "電話番号": "03-6417-0280", "郵便番号": "141-0031", "住所": "東京都品川区西五反田1-13-7  マルキビル3Ｆ", "緯度": 35.623980, "経度": 139.724150, "説明(日本語)": "就労移行支援", "説明(英語)": null, "FAX番号": null, "開所時間帯": null, "開所時刻": null, "閉所時刻": null, "利用料金": null, "画像URL": null, "サムネイル画像URL": null, "ホームページアドレス": null, "創設日": null, "創設者": null }, "geometry": { "type": "Point", "coordinates": [ 139.72415, 35.62398 ] } },
{ "type": "Feature", "properties": { "施設名": "区立品川児童学園 （児童発達支援センター）", "施設名(英語)": null, "カテゴリ": "障害者（児）福祉施設", "電話番号": "03-5796-6347", "郵便番号": "140-0004", "住所": "東京都品川区南品川3-7-7", "緯度": 35.607318, "経度": 139.744770, "説明(日本語)": "子ども発達相談室、児童発達支援事業      （知的障害児）", "説明(英語)": null, "FAX番号": null, "開所時間帯": null, "開所時刻": null, "閉所時刻": null, "利用料金": null, "画像URL": null, "サムネイル画像URL": null, "ホームページアドレス": null, "創設日": null, "創設者": null }, "geometry": { "type": "Point", "coordinates": [ 139.74477, 35.607318 ] } },
{ "type": "Feature", "properties": { "施設名": "区立品川児童学園 （コンパス）", "施設名(英語)": null, "カテゴリ": "障害者（児）福祉施設", "電話番号": "03-5781-5683", "郵便番号": "140-0004", "住所": "東京都品川区南品川3-7-7", "緯度": 35.607318, "経度": 139.744770, "説明(日本語)": "児童発達支援事業        （発達障害児）、放課後等デイサービス     （発達障害児）", "説明(英語)": null, "FAX番号": null, "開所時間帯": null, "開所時刻": null, "閉所時刻": null, "利用料金": null, "画像URL": null, "サムネイル画像URL": null, "ホームページアドレス": null, "創設日": null, "創設者": null }, "geometry": { "type": "Point", "coordinates": [ 139.74477, 35.607318 ] } },
{ "type": "Feature", "properties": { "施設名": "ちびっこタイム品川", "施設名(英語)": "Kids' Time Shinagawa", "カテゴリ": "障害者（児）福祉施設", "電話番号": "03-3450-7447", "郵便番号": "140-0002", "住所": "東京都品川区東品川3-25-16", "緯度": 35.612826, "経度": 139.746650, "説明(日本語)": "児童発達支援事業      （知的障害児）、放課後等デイサービス     （知的障害児）", "説明(英語)": null, "FAX番号": null, "開所時間帯": null, "開所時刻": null, "閉所時刻": null, "利用料金": null, "画像URL": null, "サムネイル画像URL": null, "ホームページアドレス": null, "創設日": null, "創設者": null }, "geometry": { "type": "Point", "coordinates": [ 139.74665, 35.612826 ] } },
{ "type": "Feature", "properties": { "施設名": "トット文化館", "施設名(英語)": null, "カテゴリ": "障害者（児）福祉施設", "電話番号": "03-3779-0233", "郵便番号": "141-0033", "住所": "東京都品川区西品川2-2-16", "緯度": 35.614706, "経度": 139.728540, "説明(日本語)": "就労継続B（聴覚）", "説明(英語)": null, "FAX番号": null, "開所時間帯": null, "開所時刻": null, "閉所時刻": null, "利用料金": null, "画像URL": null, "サムネイル画像URL": null, "ホームページアドレス": null, "創設日": null, "創設者": null }, "geometry": { "type": "Point", "coordinates": [ 139.72854, 35.614706 ] } },
{ "type": "Feature", "properties": { "施設名": "かもめ第一工房", "施設名(英語)": "Kamome Dai-ichi Workshop", "カテゴリ": "障害者（児）福祉施設", "電話番号": "03-3458-4307", "郵便番号": "140-0001", "住所": "東京都品川区北品川3-7-21", "緯度": 35.617875, "経度": 139.740340, "説明(日本語)": "就労継続支援B型（精神）", "説明(英語)": null, "FAX番号": null, "開所時間帯": null, "開所時刻": null, "閉所時刻": null, "利用料金": null, "画像URL": null, "サムネイル画像URL": null, "ホームページアドレス": null, "創設日": null, "創設者": null }, "geometry": { "type": "Point", "coordinates": [ 139.74034, 35.617875 ] } },
{ "type": "Feature", "properties": { "施設名": "かもめ第二工房", "施設名(英語)": "Kamome Dai-ni Workshop", "カテゴリ": "障害者（児）福祉施設", "電話番号": "03-6429-8401", "郵便番号": "140-0015", "住所": "東京都品川区西大井1-8-7", "緯度": 35.600907, "経度": 139.723110, "説明(日本語)": "就労継続支援B型（精神）", "説明(英語)": null, "FAX番号": null, "開所時間帯": null, "開所時刻": null, "閉所時刻": null, "利用料金": null, "画像URL": null, "サムネイル画像URL": null, "ホームページアドレス": null, "創設日": null, "創設者": null }, "geometry": { "type": "Point", "coordinates": [ 139.72311, 35.600907 ] } },
{ "type": "Feature", "properties": { "施設名": "かもめ第三工房", "施設名(英語)": "Kamome Dai-san Workshop", "カテゴリ": "障害者（児）福祉施設", "電話番号": "03-5435-1808", "郵便番号": "141-0031", "住所": "東京都品川区西五反田2-24-2", "緯度": 35.626013, "経度": 139.719300, "説明(日本語)": "就労継続支援B型（精神）", "説明(英語)": null, "FAX番号": null, "開所時間帯": null, "開所時刻": null, "閉所時刻": null, "利用料金": null, "画像URL": null, "サムネイル画像URL": null, "ホームページアドレス": null, "創設日": null, "創設者": null }, "geometry": { "type": "Point", "coordinates": [ 139.7193, 35.626013 ] } },
{ "type": "Feature", "properties": { "施設名": "区立北品川つばさの家", "施設名(英語)": "Kita-shinagawa Tsubasa-no-ie", "カテゴリ": "障害者（児）福祉施設", "電話番号": "03-5461-8822", "郵便番号": "140-0001", "住所": "東京都品川区北品川3-7-21", "緯度": 35.617875, "経度": 139.740340, "説明(日本語)": "グループホーム", "説明(英語)": null, "FAX番号": null, "開所時間帯": null, "開所時刻": null, "閉所時刻": null, "利用料金": null, "画像URL": null, "サムネイル画像URL": null, "ホームページアドレス": null, "創設日": null, "創設者": null }, "geometry": { "type": "Point", "coordinates": [ 139.74034, 35.617875 ] } },
{ "type": "Feature", "properties": { "施設名": "区立西大井つばさの家", "施設名(英語)": "Nishi-oi Tsubasa-no-ie", "カテゴリ": "障害者（児）福祉施設", "電話番号": "03-3777-1478", "郵便番号": "140-0015", "住所": "東京都品川区西大井5-7-24", "緯度": 35.599260, "経度": 139.716620, "説明(日本語)": "グループホーム", "説明(英語)": null, "FAX番号": null, "開所時間帯": null, "開所時刻": null, "閉所時刻": null, "利用料金": null, "画像URL": null, "サムネイル画像URL": null, "ホームページアドレス": null, "創設日": null, "創設者": null }, "geometry": { "type": "Point", "coordinates": [ 139.71662, 35.59926 ] } },
{ "type": "Feature", "properties": { "施設名": "渡辺寮", "施設名(英語)": null, "カテゴリ": "障害者（児）福祉施設", "電話番号": "03-3784-0404", "郵便番号": "142-0042", "住所": "東京都品川区豊町2-11-17", "緯度": 35.611815, "経度": 139.723950, "説明(日本語)": "グループホーム", "説明(英語)": null, "FAX番号": null, "開所時間帯": null, "開所時刻": null, "閉所時刻": null, "利用料金": null, "画像URL": null, "サムネイル画像URL": null, "ホームページアドレス": null, "創設日": null, "創設者": null }, "geometry": { "type": "Point", "coordinates": [ 139.72395, 35.611815 ] } },
{ "type": "Feature", "properties": { "施設名": "若草寮", "施設名(英語)": null, "カテゴリ": "障害者（児）福祉施設", "電話番号": "03-3785-1256", "郵便番号": "142-0042", "住所": "東京都品川区豊町2-5-11", "緯度": 35.609726, "経度": 139.723490, "説明(日本語)": "グループホーム", "説明(英語)": null, "FAX番号": null, "開所時間帯": null, "開所時刻": null, "閉所時刻": null, "利用料金": null, "画像URL": null, "サムネイル画像URL": null, "ホームページアドレス": null, "創設日": null, "創設者": null }, "geometry": { "type": "Point", "coordinates": [ 139.72349, 35.609726 ] } },
{ "type": "Feature", "properties": { "施設名": "わいわいてい", "施設名(英語)": null, "カテゴリ": "障害者（児）福祉施設", "電話番号": "03-5709-5587", "郵便番号": "140-0015", "住所": "東京都品川区西大井6-9-3", "緯度": 35.600832, "経度": 139.720800, "説明(日本語)": "グループホーム", "説明(英語)": null, "FAX番号": null, "開所時間帯": null, "開所時刻": null, "閉所時刻": null, "利用料金": null, "画像URL": null, "サムネイル画像URL": null, "ホームページアドレス": null, "創設日": null, "創設者": null }, "geometry": { "type": "Point", "coordinates": [ 139.7208, 35.600832 ] } },
{ "type": "Feature", "properties": { "施設名": "旗の台つばさの家", "施設名(英語)": "Hatanodai Tsubasa-no-ie", "カテゴリ": "障害者（児）福祉施設", "電話番号": "03-5788-3177", "郵便番号": "142-0064", "住所": "東京都品川区旗の台3-5-11", "緯度": 35.605040, "経度": 139.708390, "説明(日本語)": "グループホーム", "説明(英語)": null, "FAX番号": null, "開所時間帯": null, "開所時刻": null, "閉所時刻": null, "利用料金": null, "画像URL": null, "サムネイル画像URL": null, "ホームページアドレス": null, "創設日": null, "創設者": null }, "geometry": { "type": "Point", "coordinates": [ 139.70839, 35.60504 ] } },
{ "type": "Feature", "properties": { "施設名": "海老沢寮", "施設名(英語)": null, "カテゴリ": "障害者（児）福祉施設", "電話番号": "03-3450-5181", "郵便番号": "140-0011", "住所": "東京都品川区東大井4-8-11", "緯度": 35.605535, "経度": 139.740710, "説明(日本語)": "グループホーム", "説明(英語)": null, "FAX番号": null, "開所時間帯": null, "開所時刻": null, "閉所時刻": null, "利用料金": null, "画像URL": null, "サムネイル画像URL": null, "ホームページアドレス": null, "創設日": null, "創設者": null }, "geometry": { "type": "Point", "coordinates": [ 139.74071, 35.605535 ] } },
{ "type": "Feature", "properties": { "施設名": "八潮寮", "施設名(英語)": null, "カテゴリ": "障害者（児）福祉施設", "電話番号": "03-3799-2809", "郵便番号": "140-0003", "住所": "東京都品川区八潮5-6-33-403", "緯度": 35.597231, "経度": 139.749760, "説明(日本語)": "グループホーム", "説明(英語)": null, "FAX番号": null, "開所時間帯": null, "開所時刻": null, "閉所時刻": null, "利用料金": null, "画像URL": null, "サムネイル画像URL": null, "ホームページアドレス": null, "創設日": null, "創設者": null }, "geometry": { "type": "Point", "coordinates": [ 139.74976, 35.597231 ] } },
{ "type": "Feature", "properties": { "施設名": "グループホーム森前", "施設名(英語)": null, "カテゴリ": "障害者（児）福祉施設", "電話番号": "03-5742-7522", "郵便番号": "140-0015", "住所": "東京都品川区西大井1-8-7", "緯度": 35.600907, "経度": 139.723110, "説明(日本語)": "グループホーム", "説明(英語)": null, "FAX番号": null, "開所時間帯": null, "開所時刻": null, "閉所時刻": null, "利用料金": null, "画像URL": null, "サムネイル画像URL": null, "ホームページアドレス": null, "創設日": null, "創設者": null }, "geometry": { "type": "Point", "coordinates": [ 139.72311, 35.600907 ] } },
{ "type": "Feature", "properties": { "施設名": "鮫洲なぎさの家", "施設名(英語)": null, "カテゴリ": "障害者（児）福祉施設", "電話番号": "03-5460-8605", "郵便番号": "140-0015", "住所": "東京都品川区西大井1-3-10", "緯度": 35.601641, "経度": 139.721970, "説明(日本語)": "グループホーム", "説明(英語)": null, "FAX番号": null, "開所時間帯": null, "開所時刻": null, "閉所時刻": null, "利用料金": null, "画像URL": null, "サムネイル画像URL": null, "ホームページアドレス": null, "創設日": null, "創設者": null }, "geometry": { "type": "Point", "coordinates": [ 139.72197, 35.601641 ] } },
{ "type": "Feature", "properties": { "施設名": "ミドリホーム品川", "施設名(英語)": null, "カテゴリ": "障害者（児）福祉施設", "電話番号": "03-5753-2300", "郵便番号": "140-0011", "住所": "東京都品川区東大井2-19-3", "緯度": 35.599872, "経度": 139.740020, "説明(日本語)": "グループホーム", "説明(英語)": null, "FAX番号": null, "開所時間帯": null, "開所時刻": null, "閉所時刻": null, "利用料金": null, "画像URL": null, "サムネイル画像URL": null, "ホームページアドレス": null, "創設日": null, "創設者": null }, "geometry": { "type": "Point", "coordinates": [ 139.74002, 35.599872 ] } },
{ "type": "Feature", "properties": { "施設名": "かもめハウス", "施設名(英語)": null, "カテゴリ": "障害者（児）福祉施設", "電話番号": "03-5753-8260", "郵便番号": "140-0013", "住所": "東京都品川区南大井3-20-14", "緯度": 35.589004, "経度": 139.735190, "説明(日本語)": "グループホーム（精神）", "説明(英語)": null, "FAX番号": null, "開所時間帯": null, "開所時刻": null, "閉所時刻": null, "利用料金": null, "画像URL": null, "サムネイル画像URL": null, "ホームページアドレス": null, "創設日": null, "創設者": null }, "geometry": { "type": "Point", "coordinates": [ 139.73519, 35.589004 ] } },
{ "type": "Feature", "properties": { "施設名": "(社福）品川総合福祉センター福祉工場しながわ", "施設名(英語)": null, "カテゴリ": "障害者（児）福祉施設", "電話番号": "03-5460-8601", "郵便番号": "140-0011", "住所": "東京都品川区東大井1-3-10", "緯度": 35.605796, "経度": 139.743970, "説明(日本語)": "就労継続支援A型（知）", "説明(英語)": null, "FAX番号": null, "開所時間帯": null, "開所時刻": null, "閉所時刻": null, "利用料金": null, "画像URL": null, "サムネイル画像URL": null, "ホームページアドレス": null, "創設日": null, "創設者": null }, "geometry": { "type": "Point", "coordinates": [ 139.74397, 35.605796 ] } },
{ "type": "Feature", "properties": { "施設名": "区立障害者生活支援センター（心身障害者福祉会館内）", "施設名(英語)": null, "カテゴリ": "障害者（児）福祉施設", "電話番号": "03-5750-4995", "郵便番号": "142-0064", "住所": "東京都品川区旗の台5-2-2", "緯度": 35.605004, "経度": 139.700420, "説明(日本語)": "支援センター・福祉センター", "説明(英語)": null, "FAX番号": null, "開所時間帯": null, "開所時刻": null, "閉所時刻": null, "利用料金": null, "画像URL": null, "サムネイル画像URL": null, "ホームページアドレス": null, "創設日": null, "創設者": null }, "geometry": { "type": "Point", "coordinates": [ 139.70042, 35.605004 ] } },
{ "type": "Feature", "properties": { "施設名": "福栄会 障害者相談支援センター", "施設名(英語)": null, "カテゴリ": "障害者（児）福祉施設", "電話番号": "03-5479-2912", "郵便番号": "140-0002", "住所": "東京都品川区東品川3-1-8", "緯度": 35.617256, "経度": 139.746840, "説明(日本語)": "支援センター・福祉センター", "説明(英語)": null, "FAX番号": null, "開所時間帯": null, "開所時刻": null, "閉所時刻": null, "利用料金": null, "画像URL": null, "サムネイル画像URL": null, "ホームページアドレス": null, "創設日": null, "創設者": null }, "geometry": { "type": "Point", "coordinates": [ 139.74684, 35.617256 ] } },
{ "type": "Feature", "properties": { "施設名": "精神障害者地域生活支援センター（たいむ）", "施設名(英語)": null, "カテゴリ": "障害者（児）福祉施設", "電話番号": "03-5719-3381", "郵便番号": "141-0031", "住所": "東京都品川区西五反田2-24-2", "緯度": 35.626013, "経度": 139.719300, "説明(日本語)": "支援センター・福祉センター", "説明(英語)": null, "FAX番号": null, "開所時間帯": null, "開所時刻": null, "閉所時刻": null, "利用料金": null, "画像URL": null, "サムネイル画像URL": null, "ホームページアドレス": null, "創設日": null, "創設者": null }, "geometry": { "type": "Point", "coordinates": [ 139.7193, 35.626013 ] } },
{ "type": "Feature", "properties": { "施設名": "障害者就労支援センター（げんき品川）", "施設名(英語)": "Handicapped People Employment Support Ctr.(Genki Shinagawa)", "カテゴリ": "障害者（児）福祉施設", "電話番号": "03-5496-2525", "郵便番号": "141-0032", "住所": "東京都品川区大崎4-11-12", "緯度": 35.618580, "経度": 139.721400, "説明(日本語)": "支援センター・福祉センター", "説明(英語)": null, "FAX番号": null, "開所時間帯": null, "開所時刻": null, "閉所時刻": null, "利用料金": null, "画像URL": null, "サムネイル画像URL": null, "ホームページアドレス": null, "創設日": null, "創設者": null }, "geometry": { "type": "Point", "coordinates": [ 139.7214, 35.61858 ] } },
{ "type": "Feature", "properties": { "施設名": "区立地域活動支援センター 逢「あえる」                  （心身障害者福祉会館内）", "施設名(英語)": null, "カテゴリ": "障害者（児）福祉施設", "電話番号": "03-5750-4996", "郵便番号": "142-0064", "住所": "東京都品川区旗の台5-2-2", "緯度": 35.605004, "経度": 139.700420, "説明(日本語)": "支援センター・福祉センター", "説明(英語)": null, "FAX番号": null, "開所時間帯": null, "開所時刻": null, "閉所時刻": null, "利用料金": null, "画像URL": null, "サムネイル画像URL": null, "ホームページアドレス": null, "創設日": null, "創設者": null }, "geometry": { "type": "Point", "coordinates": [ 139.70042, 35.605004 ] } },
{ "type": "Feature", "properties": { "施設名": "品川児童相談所", "施設名(英語)": "Shinagawa Child Guidance Ctr.", "カテゴリ": "障害者（児）福祉施設", "電話番号": "03-3474-5442", "郵便番号": "140-0001", "住所": "東京都品川区北品川3-7-21", "緯度": 35.617875, "経度": 139.740340, "説明(日本語)": "その他の福祉施設", "説明(英語)": null, "FAX番号": null, "開所時間帯": null, "開所時刻": null, "閉所時刻": null, "利用料金": null, "画像URL": null, "サムネイル画像URL": null, "ホームページアドレス": null, "創設日": null, "創設者": null }, "geometry": { "type": "Point", "coordinates": [ 139.74034, 35.617875 ] } },
{ "type": "Feature", "properties": { "施設名": "ふれあい作業所", "施設名(英語)": "Fureai Workshop", "カテゴリ": "障害者（児）福祉施設", "電話番号": "03-3775-4585", "郵便番号": "140-0015", "住所": "東京都品川区西大井4-9-9", "緯度": 35.596236, "経度": 139.720280, "説明(日本語)": "その他の福祉施設", "説明(英語)": null, "FAX番号": null, "開所時間帯": null, "開所時刻": null, "閉所時刻": null, "利用料金": null, "画像URL": null, "サムネイル画像URL": null, "ホームページアドレス": null, "創設日": null, "創設者": null }, "geometry": { "type": "Point", "coordinates": [ 139.72028, 35.596236 ] } },
{ "type": "Feature", "properties": { "施設名": "ふれあい作業所西品川分室", "施設名(英語)": "Fureai Workshop Nishi-shinagawa Branch", "カテゴリ": "障害者（児）福祉施設", "電話番号": "03-3787-5750", "郵便番号": "141-0033", "住所": "東京都品川区西品川1-28-3", "緯度": 35.609295, "経度": 139.727690, "説明(日本語)": "その他の福祉施設", "説明(英語)": null, "FAX番号": null, "開所時間帯": null, "開所時刻": null, "閉所時刻": null, "利用料金": null, "画像URL": null, "サムネイル画像URL": null, "ホームページアドレス": null, "創設日": null, "創設者": null }, "geometry": { "type": "Point", "coordinates": [ 139.72769, 35.609295 ] } },
{ "type": "Feature", "properties": { "施設名": "ふれあい作業所荏原分室", "施設名(英語)": "Fureai Workshop Ebara Branch", "カテゴリ": "障害者（児）福祉施設", "電話番号": "03-5788-3151", "郵便番号": "142-0054", "住所": "東京都品川区西中延1-2-8", "緯度": 35.614147, "経度": 139.709780, "説明(日本語)": "その他の福祉施設", "説明(英語)": null, "FAX番号": null, "開所時間帯": null, "開所時刻": null, "閉所時刻": null, "利用料金": null, "画像URL": null, "サムネイル画像URL": null, "ホームページアドレス": null, "創設日": null, "創設者": null }, "geometry": { "type": "Point", "coordinates": [ 139.70978, 35.614147 ] } },
{ "type": "Feature", "properties": { "施設名": "障害者日中一時支援事業（放課後サポート）    にじのひろば荏原", "施設名(英語)": null, "カテゴリ": "障害者（児）福祉施設", "電話番号": "03-3787-3757", "郵便番号": "142-0063", "住所": "東京都品川区荏原4-12-20", "緯度": 35.616061, "経度": 139.705290, "説明(日本語)": "その他の福祉施設", "説明(英語)": null, "FAX番号": null, "開所時間帯": null, "開所時刻": null, "閉所時刻": null, "利用料金": null, "画像URL": null, "サムネイル画像URL": null, "ホームページアドレス": null, "創設日": null, "創設者": null }, "geometry": { "type": "Point", "coordinates": [ 139.70529, 35.616061 ] } },
{ "type": "Feature", "properties": { "施設名": "障害者日中一時支援事業（放課後サポート）    にじのひろば八潮", "施設名(英語)": null, "カテゴリ": "障害者（児）福祉施設", "電話番号": "03-5755-9795", "郵便番号": "140-0003", "住所": "東京都品川区八潮5-3-8", "緯度": 35.603200, "経度": 139.751930, "説明(日本語)": "その他の福祉施設", "説明(英語)": null, "FAX番号": null, "開所時間帯": null, "開所時刻": null, "閉所時刻": null, "利用料金": null, "画像URL": null, "サムネイル画像URL": null, "ホームページアドレス": null, "創設日": null, "創設者": null }, "geometry": { "type": "Point", "coordinates": [ 139.75193, 35.6032 ] } },
{ "type": "Feature", "properties": { "施設名": "発達障害児思春期サポート事業（ら・るーと）", "施設名(英語)": null, "カテゴリ": "障害者（児）福祉施設", "電話番号": "03-5782-7650", "郵便番号": "140-0001", "住所": "東京都品川区北品川3-7-21", "緯度": 35.617875, "経度": 139.740340, "説明(日本語)": "その他の福祉施設", "説明(英語)": null, "FAX番号": null, "開所時間帯": null, "開所時刻": null, "閉所時刻": null, "利用料金": null, "画像URL": null, "サムネイル画像URL": null, "ホームページアドレス": null, "創設日": null, "創設者": null }, "geometry": { "type": "Point", "coordinates": [ 139.74034, 35.617875 ] } },
{ "type": "Feature", "properties": { "施設名": "重症心身障害者通所事業「ピッコロ」", "施設名(英語)": null, "カテゴリ": "障害者（児）福祉施設", "電話番号": "03-3799-5931", "郵便番号": "140-0003", "住所": "東京都品川区八潮5-3-8", "緯度": 35.603200, "経度": 139.751930, "説明(日本語)": "その他の福祉施設", "説明(英語)": null, "FAX番号": null, "開所時間帯": null, "開所時刻": null, "閉所時刻": null, "利用料金": null, "画像URL": null, "サムネイル画像URL": null, "ホームページアドレス": null, "創設日": null, "創設者": null }, "geometry": { "type": "Point", "coordinates": [ 139.75193, 35.6032 ] } },
{ "type": "Feature", "properties": { "施設名": "城南幼稚園", "施設名(英語)": "Jonan Kindergarten", "カテゴリ": "教育・子どもの施設", "電話番号": "03-3471-7584", "郵便番号": "140-0004", "住所": "東京都品川区南品川2-8-21", "緯度": 35.613329, "経度": 139.742750, "説明(日本語)": "区立幼稚園", "説明(英語)": null, "FAX番号": null, "開所時間帯": null, "開所時刻": null, "閉所時刻": null, "利用料金": null, "画像URL": null, "サムネイル画像URL": null, "ホームページアドレス": null, "創設日": null, "創設者": null }, "geometry": { "type": "Point", "coordinates": [ 139.74275, 35.613329 ] } },
{ "type": "Feature", "properties": { "施設名": "幼保一体施設「平塚すこやか園」", "施設名(英語)": "Hiratsuka Kindergarten（Hiratsuka Sukoyaka‐en）", "カテゴリ": "教育・子どもの施設", "電話番号": "03-3781-8913", "郵便番号": "142-0063", "住所": "東京都品川区荏原4-5-22", "緯度": 35.615030, "経度": 139.707690, "説明(日本語)": "区立幼稚園", "説明(英語)": null, "FAX番号": null, "開所時間帯": null, "開所時刻": null, "閉所時刻": null, "利用料金": null, "画像URL": null, "サムネイル画像URL": null, "ホームページアドレス": null, "創設日": null, "創設者": null }, "geometry": { "type": "Point", "coordinates": [ 139.70769, 35.61503 ] } },
{ "type": "Feature", "properties": { "施設名": "浜川幼稚園", "施設名(英語)": "Hamakawa Kindergarten", "カテゴリ": "教育・子どもの施設", "電話番号": "03-3761-6395", "郵便番号": "140-0013", "住所": "東京都品川区南大井4-3-14", "緯度": 35.597783, "経度": 139.736580, "説明(日本語)": "区立幼稚園", "説明(英語)": null, "FAX番号": null, "開所時間帯": null, "開所時刻": null, "閉所時刻": null, "利用料金": null, "画像URL": null, "サムネイル画像URL": null, "ホームページアドレス": null, "創設日": null, "創設者": null }, "geometry": { "type": "Point", "coordinates": [ 139.73658, 35.597783 ] } },
{ "type": "Feature", "properties": { "施設名": "幼保一体施設「御殿山すこやか園」", "施設名(英語)": "Gotenyama Kindergarten（Gotenyama Sukoyaka‐en）", "カテゴリ": "教育・子どもの施設", "電話番号": "03-5781-3907", "郵便番号": "140-0001", "住所": "東京都品川区北品川5-3-1", "緯度": 35.622519, "経度": 139.731700, "説明(日本語)": "区立幼稚園", "説明(英語)": null, "FAX番号": null, "開所時間帯": null, "開所時刻": null, "閉所時刻": null, "利用料金": null, "画像URL": null, "サムネイル画像URL": null, "ホームページアドレス": null, "創設日": null, "創設者": null }, "geometry": { "type": "Point", "coordinates": [ 139.7317, 35.622519 ] } },
{ "type": "Feature", "properties": { "施設名": "伊藤幼稚園", "施設名(英語)": "Ito Kindergarten", "カテゴリ": "教育・子どもの施設", "電話番号": "03-3775-8028", "郵便番号": "140-0015", "住所": "東京都品川区西大井5-22-8", "緯度": 35.598113, "経度": 139.716850, "説明(日本語)": "区立幼稚園", "説明(英語)": null, "FAX番号": null, "開所時間帯": null, "開所時刻": null, "閉所時刻": null, "利用料金": null, "画像URL": null, "サムネイル画像URL": null, "ホームページアドレス": null, "創設日": null, "創設者": null }, "geometry": { "type": "Point", "coordinates": [ 139.71685, 35.598113 ] } },
{ "type": "Feature", "properties": { "施設名": "幼保一体施設「第一日野すこやか園」", "施設名(英語)": "Dai-ichi-hino Kindergarten（Dai-ichi-hino Sukoyaka‐en）", "カテゴリ": "教育・子どもの施設", "電話番号": "03-3493-7264", "郵便番号": "141-0031", "住所": "東京都品川区西五反田6-5-6", "緯度": 35.622133, "経度": 139.716360, "説明(日本語)": "区立幼稚園", "説明(英語)": null, "FAX番号": null, "開所時間帯": null, "開所時刻": null, "閉所時刻": null, "利用料金": null, "画像URL": null, "サムネイル画像URL": null, "ホームページアドレス": null, "創設日": null, "創設者": null }, "geometry": { "type": "Point", "coordinates": [ 139.71636, 35.622133 ] } },
{ "type": "Feature", "properties": { "施設名": "幼保一体施設「のびっこ園台場」", "施設名(英語)": "Daiba Kindergarten（Nobikkoen Daiba)", "カテゴリ": "教育・子どもの施設", "電話番号": "03-3472-8378", "郵便番号": "140-0002", "住所": "東京都品川区東品川1-8-30", "緯度": 35.621383, "経度": 139.743180, "説明(日本語)": "区立幼稚園", "説明(英語)": null, "FAX番号": null, "開所時間帯": null, "開所時刻": null, "閉所時刻": null, "利用料金": null, "画像URL": null, "サムネイル画像URL": null, "ホームページアドレス": null, "創設日": null, "創設者": null }, "geometry": { "type": "Point", "coordinates": [ 139.74318, 35.621383 ] } },
{ "type": "Feature", "properties": { "施設名": "幼保一体施設「二葉すこやか園」", "施設名(英語)": "Hutaba Kindergarten（Hutaba Sukoyaka‐en）", "カテゴリ": "教育・子どもの施設", "電話番号": "03-3785-9560", "郵便番号": "142-0043", "住所": "東京都品川区二葉1-3-40", "緯度": 35.607287, "経度": 139.725690, "説明(日本語)": "区立幼稚園", "説明(英語)": null, "FAX番号": null, "開所時間帯": null, "開所時刻": null, "閉所時刻": null, "利用料金": null, "画像URL": null, "サムネイル画像URL": null, "ホームページアドレス": null, "創設日": null, "創設者": null }, "geometry": { "type": "Point", "coordinates": [ 139.72569, 35.607287 ] } },
{ "type": "Feature", "properties": { "施設名": "八潮わかば幼稚園", "施設名(英語)": "Yashio Wakaba Kindergarten", "カテゴリ": "教育・子どもの施設", "電話番号": "03-3799-1542", "郵便番号": "140-0003", "住所": "東京都品川区八潮5-6-32", "緯度": 35.596631, "経度": 139.749910, "説明(日本語)": "区立幼稚園", "説明(英語)": null, "FAX番号": null, "開所時間帯": null, "開所時刻": null, "閉所時刻": null, "利用料金": null, "画像URL": null, "サムネイル画像URL": null, "ホームページアドレス": null, "創設日": null, "創設者": null }, "geometry": { "type": "Point", "coordinates": [ 139.74991, 35.596631 ] } },
{ "type": "Feature", "properties": { "施設名": "あけぼの幼稚園", "施設名(英語)": "Akebono Kindergarten", "カテゴリ": "教育・子どもの施設", "電話番号": "03-3776-5093", "郵便番号": "140-0014", "住所": "東京都品川区大井5-10-12", "緯度": 35.598294, "経度": 139.730010, "説明(日本語)": "私立幼稚園", "説明(英語)": null, "FAX番号": null, "開所時間帯": null, "開所時刻": null, "閉所時刻": null, "利用料金": null, "画像URL": null, "サムネイル画像URL": null, "ホームページアドレス": null, "創設日": null, "創設者": null }, "geometry": { "type": "Point", "coordinates": [ 139.73001, 35.598294 ] } },
{ "type": "Feature", "properties": { "施設名": "アライアンス幼稚園", "施設名(英語)": "Alliance Kindergarten", "カテゴリ": "教育・子どもの施設", "電話番号": "03-3786-0379", "郵便番号": "142-0062", "住所": "東京都品川区小山4-4-13", "緯度": 35.618430, "経度": 139.703970, "説明(日本語)": "私立幼稚園", "説明(英語)": null, "FAX番号": null, "開所時間帯": null, "開所時刻": null, "閉所時刻": null, "利用料金": null, "画像URL": null, "サムネイル画像URL": null, "ホームページアドレス": null, "創設日": null, "創設者": null }, "geometry": { "type": "Point", "coordinates": [ 139.70397, 35.61843 ] } },
{ "type": "Feature", "properties": { "施設名": "荏原学園旭幼稚園", "施設名(英語)": "Ebara-gakuen Kindergarten", "カテゴリ": "教育・子どもの施設", "電話番号": "03-3781-4915", "郵便番号": "142-0053", "住所": "東京都品川区中延5-6-18", "緯度": 35.603154, "経度": 139.708500, "説明(日本語)": "私立幼稚園", "説明(英語)": null, "FAX番号": null, "開所時間帯": null, "開所時刻": null, "閉所時刻": null, "利用料金": null, "画像URL": null, "サムネイル画像URL": null, "ホームページアドレス": null, "創設日": null, "創設者": null }, "geometry": { "type": "Point", "coordinates": [ 139.7085, 35.603154 ] } },
{ "type": "Feature", "properties": { "施設名": "エトワール幼稚園", "施設名(英語)": "Etoile Kindergarten", "カテゴリ": "教育・子どもの施設", "電話番号": "03-3474-7321", "郵便番号": "140-0004", "住所": "東京都品川区南品川5-12-4", "緯度": 35.608568, "経度": 139.740250, "説明(日本語)": "私立幼稚園", "説明(英語)": null, "FAX番号": null, "開所時間帯": null, "開所時刻": null, "閉所時刻": null, "利用料金": null, "画像URL": null, "サムネイル画像URL": null, "ホームページアドレス": null, "創設日": null, "創設者": null }, "geometry": { "type": "Point", "coordinates": [ 139.74025, 35.608568 ] } },
{ "type": "Feature", "properties": { "施設名": "大井うさぎ幼稚園", "施設名(英語)": "Oi-usagi Kindergarten", "カテゴリ": "教育・子どもの施設", "電話番号": "03-3776-6549", "郵便番号": "140-0014", "住所": "東京都品川区大井7-1-5", "緯度": 35.597313, "経度": 139.725250, "説明(日本語)": "私立幼稚園", "説明(英語)": null, "FAX番号": null, "開所時間帯": null, "開所時刻": null, "閉所時刻": null, "利用料金": null, "画像URL": null, "サムネイル画像URL": null, "ホームページアドレス": null, "創設日": null, "創設者": null }, "geometry": { "type": "Point", "coordinates": [ 139.72525, 35.597313 ] } },
{ "type": "Feature", "properties": { "施設名": "大崎幼稚園", "施設名(英語)": "Osaki Kindergarten", "カテゴリ": "教育・子どもの施設", "電話番号": "03-3491-5731", "郵便番号": "141-0032", "住所": "東京都品川区大崎3-11-1", "緯度": 35.619283, "経度": 139.723410, "説明(日本語)": "私立幼稚園", "説明(英語)": null, "FAX番号": null, "開所時間帯": null, "開所時刻": null, "閉所時刻": null, "利用料金": null, "画像URL": null, "サムネイル画像URL": null, "ホームページアドレス": null, "創設日": null, "創設者": null }, "geometry": { "type": "Point", "coordinates": [ 139.72341, 35.619283 ] } },
{ "type": "Feature", "properties": { "施設名": "小野学園幼稚園", "施設名(英語)": "Ono-gakuen Kindergarten", "カテゴリ": "教育・子どもの施設", "電話番号": "03-3774-1151", "郵便番号": "140-0015", "住所": "東京都品川区西大井1-6-13", "緯度": 35.602538, "経度": 139.726280, "説明(日本語)": "私立幼稚園", "説明(英語)": null, "FAX番号": null, "開所時間帯": null, "開所時刻": null, "閉所時刻": null, "利用料金": null, "画像URL": null, "サムネイル画像URL": null, "ホームページアドレス": null, "創設日": null, "創設者": null }, "geometry": { "type": "Point", "coordinates": [ 139.72628, 35.602538 ] } },
{ "type": "Feature", "properties": { "施設名": "亀田幼稚園", "施設名(英語)": "Kameda Kindergarten", "カテゴリ": "教育・子どもの施設", "電話番号": "03-3783-7211", "郵便番号": "142-0053", "住所": "東京都品川区中延6-1-3", "緯度": 35.603907, "経度": 139.710370, "説明(日本語)": "私立幼稚園", "説明(英語)": null, "FAX番号": null, "開所時間帯": null, "開所時刻": null, "閉所時刻": null, "利用料金": null, "画像URL": null, "サムネイル画像URL": null, "ホームページアドレス": null, "創設日": null, "創設者": null }, "geometry": { "type": "Point", "coordinates": [ 139.71037, 35.603907 ] } },
{ "type": "Feature", "properties": { "施設名": "品川教会附属幼稚園", "施設名(英語)": "Shinagawa-kyokai Fuzoku Kindergarten", "カテゴリ": "教育・子どもの施設", "電話番号": "03-3443-1725", "郵便番号": "140-0001", "住所": "東京都品川区北品川4-7-40", "緯度": 35.622500, "経度": 139.737530, "説明(日本語)": "私立幼稚園", "説明(英語)": null, "FAX番号": null, "開所時間帯": null, "開所時刻": null, "閉所時刻": null, "利用料金": null, "画像URL": null, "サムネイル画像URL": null, "ホームページアドレス": null, "創設日": null, "創設者": null }, "geometry": { "type": "Point", "coordinates": [ 139.73753, 35.6225 ] } },
{ "type": "Feature", "properties": { "施設名": "鈴ヶ森めばえ幼稚園", "施設名(英語)": "Suzugamori Mebae Kindergarten", "カテゴリ": "教育・子どもの施設", "電話番号": "03-3761-8086", "郵便番号": "140-0013", "住所": "東京都品川区南大井2-4-1", "緯度": 35.593228, "経度": 139.736870, "説明(日本語)": "私立幼稚園", "説明(英語)": null, "FAX番号": null, "開所時間帯": null, "開所時刻": null, "閉所時刻": null, "利用料金": null, "画像URL": null, "サムネイル画像URL": null, "ホームページアドレス": null, "創設日": null, "創設者": null }, "geometry": { "type": "Point", "coordinates": [ 139.73687, 35.593228 ] } },
{ "type": "Feature", "properties": { "施設名": "専修幼稚園", "施設名(英語)": "Sensyu Kindergarten", "カテゴリ": "教育・子どもの施設", "電話番号": "03-3492-2300", "郵便番号": "141-0031", "住所": "東京都品川区西五反田6-11-5", "緯度": 35.620994, "経度": 139.717550, "説明(日本語)": "私立幼稚園", "説明(英語)": null, "FAX番号": null, "開所時間帯": null, "開所時刻": null, "閉所時刻": null, "利用料金": null, "画像URL": null, "サムネイル画像URL": null, "ホームページアドレス": null, "創設日": null, "創設者": null }, "geometry": { "type": "Point", "coordinates": [ 139.71755, 35.620994 ] } },
{ "type": "Feature", "properties": { "施設名": "洗足うさぎ幼稚園", "施設名(英語)": "Senzoku-usagi Kindergarten", "カテゴリ": "教育・子どもの施設", "電話番号": "03-3781-6215", "郵便番号": "142-0063", "住所": "東京都品川区荏原7-18-15", "緯度": 35.609947, "経度": 139.698690, "説明(日本語)": "私立幼稚園", "説明(英語)": null, "FAX番号": null, "開所時間帯": null, "開所時刻": null, "閉所時刻": null, "利用料金": null, "画像URL": null, "サムネイル画像URL": null, "ホームページアドレス": null, "創設日": null, "創設者": null }, "geometry": { "type": "Point", "coordinates": [ 139.69869, 35.609947 ] } },
{ "type": "Feature", "properties": { "施設名": "戸越幼稚園", "施設名(英語)": "Togoshi Kindergarten", "カテゴリ": "教育・子どもの施設", "電話番号": "03-3785-4968", "郵便番号": "142-0041", "住所": "東京都品川区戸越1-21-15", "緯度": 35.615122, "経度": 139.721340, "説明(日本語)": "私立幼稚園", "説明(英語)": null, "FAX番号": null, "開所時間帯": null, "開所時刻": null, "閉所時刻": null, "利用料金": null, "画像URL": null, "サムネイル画像URL": null, "ホームページアドレス": null, "創設日": null, "創設者": null }, "geometry": { "type": "Point", "coordinates": [ 139.72134, 35.615122 ] } },
{ "type": "Feature", "properties": { "施設名": "帝京にしき幼稚園", "施設名(英語)": "Teikyo Nishiki Kindergarten", "カテゴリ": "教育・子どもの施設", "電話番号": "03-3781-8522", "郵便番号": "142-0064", "住所": "東京都品川区旗の台6-5-30", "緯度": 35.608803, "経度": 139.700240, "説明(日本語)": "私立幼稚園", "説明(英語)": null, "FAX番号": null, "開所時間帯": null, "開所時刻": null, "閉所時刻": null, "利用料金": null, "画像URL": null, "サムネイル画像URL": null, "ホームページアドレス": null, "創設日": null, "創設者": null }, "geometry": { "type": "Point", "coordinates": [ 139.70024, 35.608803 ] } },
{ "type": "Feature", "properties": { "施設名": "日本音楽学校幼稚園", "施設名(英語)": "Nihon Ongaku-gakko Fuzoku Kindergarten", "カテゴリ": "教育・子どもの施設", "電話番号": "03-3786-1711", "郵便番号": "142-0042", "住所": "東京都品川区豊町2-16-12", "緯度": 35.610151, "経度": 139.725000, "説明(日本語)": "私立幼稚園", "説明(英語)": null, "FAX番号": null, "開所時間帯": null, "開所時刻": null, "閉所時刻": null, "利用料金": null, "画像URL": null, "サムネイル画像URL": null, "ホームページアドレス": null, "創設日": null, "創設者": null }, "geometry": { "type": "Point", "coordinates": [ 139.725, 35.610151 ] } },
{ "type": "Feature", "properties": { "施設名": "ひまわり幼稚園", "施設名(英語)": "Himawari Kindergarten", "カテゴリ": "教育・子どもの施設", "電話番号": "03-3781-4227", "郵便番号": "142-0062", "住所": "東京都品川区小山6-10-11", "緯度": 35.613655, "経度": 139.697930, "説明(日本語)": "私立幼稚園", "説明(英語)": null, "FAX番号": null, "開所時間帯": null, "開所時刻": null, "閉所時刻": null, "利用料金": null, "画像URL": null, "サムネイル画像URL": null, "ホームページアドレス": null, "創設日": null, "創設者": null }, "geometry": { "type": "Point", "coordinates": [ 139.69793, 35.613655 ] } },
{ "type": "Feature", "properties": { "施設名": "文教大学付属幼稚園", "施設名(英語)": "Bunkyo Univ. Fuzoku Kindergarten", "カテゴリ": "教育・子どもの施設", "電話番号": "03-3781-2798", "郵便番号": "142-0064", "住所": "東京都品川区旗の台3-2-17", "緯度": 35.605712, "経度": 139.706470, "説明(日本語)": "私立幼稚園", "説明(英語)": null, "FAX番号": null, "開所時間帯": null, "開所時刻": null, "閉所時刻": null, "利用料金": null, "画像URL": null, "サムネイル画像URL": null, "ホームページアドレス": null, "創設日": null, "創設者": null }, "geometry": { "type": "Point", "coordinates": [ 139.70647, 35.605712 ] } },
{ "type": "Feature", "properties": { "施設名": "八潮幼稚園", "施設名(英語)": "Yashio Kindergarten", "カテゴリ": "教育・子どもの施設", "電話番号": "03-3471-2450", "郵便番号": "140-0002", "住所": "東京都品川区東品川3-24-8", "緯度": 35.612396, "経度": 139.745730, "説明(日本語)": "私立幼稚園", "説明(英語)": null, "FAX番号": null, "開所時間帯": null, "開所時刻": null, "閉所時刻": null, "利用料金": null, "画像URL": null, "サムネイル画像URL": null, "ホームページアドレス": null, "創設日": null, "創設者": null }, "geometry": { "type": "Point", "coordinates": [ 139.74573, 35.612396 ] } },
{ "type": "Feature", "properties": { "施設名": "一本橋保育園", "施設名(英語)": "Authorized Child-care Facility Ipponbashi Nursery Sch.", "カテゴリ": "教育・子どもの施設", "電話番号": "03-3775-4351", "郵便番号": "140-0014", "住所": "東京都品川区大井2-25-1", "緯度": 35.604652, "経度": 139.729630, "説明(日本語)": "区立保育園", "説明(英語)": null, "FAX番号": null, "開所時間帯": null, "開所時刻": null, "閉所時刻": null, "利用料金": null, "画像URL": null, "サムネイル画像URL": null, "ホームページアドレス": null, "創設日": null, "創設者": null }, "geometry": { "type": "Point", "coordinates": [ 139.72963, 35.604652 ] } },
{ "type": "Feature", "properties": { "施設名": "伊藤保育園", "施設名(英語)": "Ito Nursery Sch.", "カテゴリ": "教育・子どもの施設", "電話番号": "03-3771-2211", "郵便番号": "140-0015", "住所": "東京都品川区西大井6-13-1", "緯度": 35.600741, "経度": 139.717560, "説明(日本語)": "区立保育園", "説明(英語)": null, "FAX番号": null, "開所時間帯": null, "開所時刻": null, "閉所時刻": null, "利用料金": null, "画像URL": null, "サムネイル画像URL": null, "ホームページアドレス": null, "創設日": null, "創設者": null }, "geometry": { "type": "Point", "coordinates": [ 139.71756, 35.600741 ] } },
{ "type": "Feature", "properties": { "施設名": "荏原保育園", "施設名(英語)": "Bbara Nursery Sch.", "カテゴリ": "教育・子どもの施設", "電話番号": "03-3781-5331", "郵便番号": "142-0063", "住所": "東京都品川区荏原2-16-18", "緯度": 35.616736, "経度": 139.708920, "説明(日本語)": "区立保育園", "説明(英語)": null, "FAX番号": null, "開所時間帯": null, "開所時刻": null, "閉所時刻": null, "利用料金": null, "画像URL": null, "サムネイル画像URL": null, "ホームページアドレス": null, "創設日": null, "創設者": null }, "geometry": { "type": "Point", "coordinates": [ 139.70892, 35.616736 ] } },
{ "type": "Feature", "properties": { "施設名": "荏原西保育園", "施設名(英語)": "Ebara-nishi Nursery Sch.", "カテゴリ": "教育・子どもの施設", "電話番号": "03-3783-6361", "郵便番号": "142-0063", "住所": "東京都品川区荏原4-16-11", "緯度": 35.613930, "経度": 139.706110, "説明(日本語)": "区立保育園", "説明(英語)": null, "FAX番号": null, "開所時間帯": null, "開所時刻": null, "閉所時刻": null, "利用料金": null, "画像URL": null, "サムネイル画像URL": null, "ホームページアドレス": null, "創設日": null, "創設者": null }, "geometry": { "type": "Point", "coordinates": [ 139.70611, 35.61393 ] } },
{ "type": "Feature", "properties": { "施設名": "大井保育園", "施設名(英語)": "Oi Nursery Sch.", "カテゴリ": "教育・子どもの施設", "電話番号": "03-3761-8798", "郵便番号": "140-0011", "住所": "東京都品川区東大井6-14-16", "緯度": 35.600927, "経度": 139.735210, "説明(日本語)": "区立保育園", "説明(英語)": null, "FAX番号": null, "開所時間帯": null, "開所時刻": null, "閉所時刻": null, "利用料金": null, "画像URL": null, "サムネイル画像URL": null, "ホームページアドレス": null, "創設日": null, "創設者": null }, "geometry": { "type": "Point", "coordinates": [ 139.73521, 35.600927 ] } },
{ "type": "Feature", "properties": { "施設名": "大井倉田保育園", "施設名(英語)": "Oi-kurata Nursery Sch.", "カテゴリ": "教育・子どもの施設", "電話番号": "03-3776-8539", "郵便番号": "140-0014", "住所": "東京都品川区大井4-11-8", "緯度": 35.602272, "経度": 139.734100, "説明(日本語)": "区立保育園", "説明(英語)": null, "FAX番号": null, "開所時間帯": null, "開所時刻": null, "閉所時刻": null, "利用料金": null, "画像URL": null, "サムネイル画像URL": null, "ホームページアドレス": null, "創設日": null, "創設者": null }, "geometry": { "type": "Point", "coordinates": [ 139.7341, 35.602272 ] } },
{ "type": "Feature", "properties": { "施設名": "大崎保育園", "施設名(英語)": "Osaki Nursery Sch.", "カテゴリ": "教育・子どもの施設", "電話番号": "03-3492-6265", "郵便番号": "141-0032", "住所": "東京都品川区大崎5-2-1", "緯度": 35.621949, "経度": 139.726370, "説明(日本語)": "区立保育園", "説明(英語)": null, "FAX番号": null, "開所時間帯": null, "開所時刻": null, "閉所時刻": null, "利用料金": null, "画像URL": null, "サムネイル画像URL": null, "ホームページアドレス": null, "創設日": null, "創設者": null }, "geometry": { "type": "Point", "coordinates": [ 139.72637, 35.621949 ] } },
{ "type": "Feature", "properties": { "施設名": "北品川保育園", "施設名(英語)": "Kika-shinagawa Nursery Sch.", "カテゴリ": "教育・子どもの施設", "電話番号": "03-3471-4907", "郵便番号": "140-0001", "住所": "東京都品川区北品川2-7-21", "緯度": 35.618809, "経度": 139.743940, "説明(日本語)": "区立保育園", "説明(英語)": null, "FAX番号": null, "開所時間帯": null, "開所時刻": null, "閉所時刻": null, "利用料金": null, "画像URL": null, "サムネイル画像URL": null, "ホームページアドレス": null, "創設日": null, "創設者": null }, "geometry": { "type": "Point", "coordinates": [ 139.74394, 35.618809 ] } },
{ "type": "Feature", "properties": { "施設名": "北品川第二保育園", "施設名(英語)": null, "カテゴリ": "教育・子どもの施設", "電話番号": "03-5781-3881", "郵便番号": "140-0001", "住所": "東京都品川区北品川3-7-43", "緯度": 35.618040, "経度": 139.739260, "説明(日本語)": "区立保育園", "説明(英語)": null, "FAX番号": null, "開所時間帯": null, "開所時刻": null, "閉所時刻": null, "利用料金": null, "画像URL": null, "サムネイル画像URL": null, "ホームページアドレス": null, "創設日": null, "創設者": null }, "geometry": { "type": "Point", "coordinates": [ 139.73926, 35.61804 ] } },
{ "type": "Feature", "properties": { "施設名": "源氏前保育園", "施設名(英語)": "Genjimae Nursery Sch.", "カテゴリ": "教育・子どもの施設", "電話番号": "03-3783-8744", "郵便番号": "142-0053", "住所": "東京都品川区中延4-14-19", "緯度": 35.605384, "経度": 139.710100, "説明(日本語)": "区立保育園", "説明(英語)": null, "FAX番号": null, "開所時間帯": null, "開所時刻": null, "閉所時刻": null, "利用料金": null, "画像URL": null, "サムネイル画像URL": null, "ホームページアドレス": null, "創設日": null, "創設者": null }, "geometry": { "type": "Point", "coordinates": [ 139.7101, 35.605384 ] } },
{ "type": "Feature", "properties": { "施設名": "五反田保育園", "施設名(英語)": "Authorized Child-care Facility Gotanda Nursery Sch.", "カテゴリ": "教育・子どもの施設", "電話番号": "03-3445-4534", "郵便番号": "141-0022", "住所": "東京都品川区東五反田2-15-6", "緯度": 35.621933, "経度": 139.729440, "説明(日本語)": "区立保育園", "説明(英語)": null, "FAX番号": null, "開所時間帯": null, "開所時刻": null, "閉所時刻": null, "利用料金": null, "画像URL": null, "サムネイル画像URL": null, "ホームページアドレス": null, "創設日": null, "創設者": null }, "geometry": { "type": "Point", "coordinates": [ 139.72944, 35.621933 ] } },
{ "type": "Feature", "properties": { "施設名": "小山台保育園", "施設名(英語)": "Koyamadai Nursery Sch.", "カテゴリ": "教育・子どもの施設", "電話番号": "03-3710-4415", "郵便番号": "142-0061", "住所": "東京都品川区小山台1-3-8", "緯度": 35.625046, "経度": 139.706750, "説明(日本語)": "区立保育園", "説明(英語)": null, "FAX番号": null, "開所時間帯": null, "開所時刻": null, "閉所時刻": null, "利用料金": null, "画像URL": null, "サムネイル画像URL": null, "ホームページアドレス": null, "創設日": null, "創設者": null }, "geometry": { "type": "Point", "coordinates": [ 139.70675, 35.625046 ] } },
{ "type": "Feature", "properties": { "施設名": "品川保育園", "施設名(英語)": "Shinagawa Nursery Sch.", "カテゴリ": "教育・子どもの施設", "電話番号": "03-3471-0506", "郵便番号": "140-0011", "住所": "東京都品川区東大井5－8－12", "緯度": 35.607638, "経度": 139.737900, "説明(日本語)": "区立保育園", "説明(英語)": null, "FAX番号": null, "開所時間帯": null, "開所時刻": null, "閉所時刻": null, "利用料金": null, "画像URL": null, "サムネイル画像URL": null, "ホームページアドレス": null, "創設日": null, "創設者": null }, "geometry": { "type": "Point", "coordinates": [ 139.7379, 35.607638 ] } },
{ "type": "Feature", "properties": { "施設名": "清水台保育園", "施設名(英語)": "Shimizudai Nursery Sch.", "カテゴリ": "教育・子どもの施設", "電話番号": "03-3784-0519", "郵便番号": "142-0063", "住所": "東京都品川区荏原7-8-3", "緯度": 35.611706, "経度": 139.701500, "説明(日本語)": "区立保育園", "説明(英語)": null, "FAX番号": null, "開所時間帯": null, "開所時刻": null, "閉所時刻": null, "利用料金": null, "画像URL": null, "サムネイル画像URL": null, "ホームページアドレス": null, "創設日": null, "創設者": null }, "geometry": { "type": "Point", "coordinates": [ 139.7015, 35.611706 ] } },
{ "type": "Feature", "properties": { "施設名": "水神保育園", "施設名(英語)": "Suijin Nursery Sch.", "カテゴリ": "教育・子どもの施設", "電話番号": "03-3761-0321", "郵便番号": "140-0013", "住所": "東京都品川区南大井6-2-15", "緯度": 35.592789, "経度": 139.732890, "説明(日本語)": "区立保育園", "説明(英語)": null, "FAX番号": null, "開所時間帯": null, "開所時刻": null, "閉所時刻": null, "利用料金": null, "画像URL": null, "サムネイル画像URL": null, "ホームページアドレス": null, "創設日": null, "創設者": null }, "geometry": { "type": "Point", "coordinates": [ 139.73289, 35.592789 ] } },
{ "type": "Feature", "properties": { "施設名": "滝王子保育園", "施設名(英語)": "Takioji Nursery Sch.", "カテゴリ": "教育・子どもの施設", "電話番号": "03-3775-4861", "郵便番号": "140-0014", "住所": "東京都品川区大井5-18-1", "緯度": 35.598072, "経度": 139.727710, "説明(日本語)": "区立保育園", "説明(英語)": null, "FAX番号": null, "開所時間帯": null, "開所時刻": null, "閉所時刻": null, "利用料金": null, "画像URL": null, "サムネイル画像URL": null, "ホームページアドレス": null, "創設日": null, "創設者": null }, "geometry": { "type": "Point", "coordinates": [ 139.72771, 35.598072 ] } },
{ "type": "Feature", "properties": { "施設名": "中原保育園", "施設名(英語)": "Nakahara Nursery Sch.", "カテゴリ": "教育・子どもの施設", "電話番号": "03-3492-5188", "郵便番号": "142-0062", "住所": "東京都品川区小山1-4-1", "緯度": 35.622094, "経度": 139.712600, "説明(日本語)": "区立保育園", "説明(英語)": null, "FAX番号": null, "開所時間帯": null, "開所時刻": null, "閉所時刻": null, "利用料金": null, "画像URL": null, "サムネイル画像URL": null, "ホームページアドレス": null, "創設日": null, "創設者": null }, "geometry": { "type": "Point", "coordinates": [ 139.7126, 35.622094 ] } },
{ "type": "Feature", "properties": { "施設名": "中延保育園", "施設名(英語)": "Nakanobu Nursery Sch.", "カテゴリ": "教育・子どもの施設", "電話番号": "03-3784-3405", "郵便番号": "142-0054", "住所": "東京都品川区西中延1-6-16", "緯度": 35.612420, "経度": 139.708500, "説明(日本語)": "区立保育園", "説明(英語)": null, "FAX番号": null, "開所時間帯": null, "開所時刻": null, "閉所時刻": null, "利用料金": null, "画像URL": null, "サムネイル画像URL": null, "ホームページアドレス": null, "創設日": null, "創設者": null }, "geometry": { "type": "Point", "coordinates": [ 139.7085, 35.61242 ] } },
{ "type": "Feature", "properties": { "施設名": "西大井保育園", "施設名(英語)": "Nishi-oi Nursery Sch.", "カテゴリ": "教育・子どもの施設", "電話番号": "03-3774-5315", "郵便番号": "140-0015", "住所": "東京都品川区西大井1-1-1", "緯度": 35.600771, "経度": 139.721580, "説明(日本語)": "区立保育園", "説明(英語)": null, "FAX番号": null, "開所時間帯": null, "開所時刻": null, "閉所時刻": null, "利用料金": null, "画像URL": null, "サムネイル画像URL": null, "ホームページアドレス": null, "創設日": null, "創設者": null }, "geometry": { "type": "Point", "coordinates": [ 139.72158, 35.600771 ] } },
{ "type": "Feature", "properties": { "施設名": "西五反田保育園", "施設名(英語)": "Nishi-gotanda Nursery Sch.", "カテゴリ": "教育・子どもの施設", "電話番号": "03-3493-0075", "郵便番号": "141-0031", "住所": "東京都品川区西五反田3-9-10", "緯度": 35.626535, "経度": 139.716910, "説明(日本語)": "区立保育園", "説明(英語)": null, "FAX番号": null, "開所時間帯": null, "開所時刻": null, "閉所時刻": null, "利用料金": null, "画像URL": null, "サムネイル画像URL": null, "ホームページアドレス": null, "創設日": null, "創設者": null }, "geometry": { "type": "Point", "coordinates": [ 139.71691, 35.626535 ] } },
{ "type": "Feature", "properties": { "施設名": "西五反田第二保育園", "施設名(英語)": null, "カテゴリ": "教育・子どもの施設", "電話番号": "03-3493-7288", "郵便番号": "141-0031", "住所": "東京都品川区西五反田6-5-6", "緯度": 35.622133, "経度": 139.716360, "説明(日本語)": "区立保育園", "説明(英語)": null, "FAX番号": null, "開所時間帯": null, "開所時刻": null, "閉所時刻": null, "利用料金": null, "画像URL": null, "サムネイル画像URL": null, "ホームページアドレス": null, "創設日": null, "創設者": null }, "geometry": { "type": "Point", "coordinates": [ 139.71636, 35.622133 ] } },
{ "type": "Feature", "properties": { "施設名": "西品川保育園", "施設名(英語)": "Nishi-shinagawa Nursery Sch.", "カテゴリ": "教育・子どもの施設", "電話番号": "03-3493-1333", "郵便番号": "141-0033", "住所": "東京都品川区西品川3-16-35", "緯度": 35.615045, "経度": 139.726170, "説明(日本語)": "区立保育園", "説明(英語)": null, "FAX番号": null, "開所時間帯": null, "開所時刻": null, "閉所時刻": null, "利用料金": null, "画像URL": null, "サムネイル画像URL": null, "ホームページアドレス": null, "創設日": null, "創設者": null }, "geometry": { "type": "Point", "coordinates": [ 139.72617, 35.615045 ] } },
{ "type": "Feature", "properties": { "施設名": "西中延保育園", "施設名(英語)": "Nishi-nakanobu Nursery Sch.", "カテゴリ": "教育・子どもの施設", "電話番号": "03-3783-1856", "郵便番号": "142-0054", "住所": "東京都品川区西中延3-8-5", "緯度": 35.607334, "経度": 139.708150, "説明(日本語)": "区立保育園", "説明(英語)": null, "FAX番号": null, "開所時間帯": null, "開所時刻": null, "閉所時刻": null, "利用料金": null, "画像URL": null, "サムネイル画像URL": null, "ホームページアドレス": null, "創設日": null, "創設者": null }, "geometry": { "type": "Point", "coordinates": [ 139.70815, 35.607334 ] } },
{ "type": "Feature", "properties": { "施設名": "旗の台保育園", "施設名(英語)": "Authorized Child-care Facility Hatanodai Nursery Sch.", "カテゴリ": "教育・子どもの施設", "電話番号": "03-3784-1903", "郵便番号": "142-0064", "住所": "東京都品川区旗の台5-19-5", "緯度": 35.603756, "経度": 139.700450, "説明(日本語)": "区立保育園", "説明(英語)": null, "FAX番号": null, "開所時間帯": null, "開所時刻": null, "閉所時刻": null, "利用料金": null, "画像URL": null, "サムネイル画像URL": null, "ホームページアドレス": null, "創設日": null, "創設者": null }, "geometry": { "type": "Point", "coordinates": [ 139.70045, 35.603756 ] } },
{ "type": "Feature", "properties": { "施設名": "東大井保育園", "施設名(英語)": "Higashi-oi Nursery Sch.", "カテゴリ": "教育・子どもの施設", "電話番号": "03-3471-1190", "郵便番号": "140-0011", "住所": "東京都品川区東大井1-22-16", "緯度": 35.603483, "経度": 139.741370, "説明(日本語)": "区立保育園", "説明(英語)": null, "FAX番号": null, "開所時間帯": null, "開所時刻": null, "閉所時刻": null, "利用料金": null, "画像URL": null, "サムネイル画像URL": null, "ホームページアドレス": null, "創設日": null, "創設者": null }, "geometry": { "type": "Point", "coordinates": [ 139.74137, 35.603483 ] } },
{ "type": "Feature", "properties": { "施設名": "東五反田保育園", "施設名(英語)": "Higashi-gotanda Nursery Sch.", "カテゴリ": "教育・子どもの施設", "電話番号": "03-3447-0663", "郵便番号": "141-0022", "住所": "東京都品川区東五反田5-24-1", "緯度": 35.628013, "経度": 139.723390, "説明(日本語)": "区立保育園", "説明(英語)": null, "FAX番号": null, "開所時間帯": null, "開所時刻": null, "閉所時刻": null, "利用料金": null, "画像URL": null, "サムネイル画像URL": null, "ホームページアドレス": null, "創設日": null, "創設者": null }, "geometry": { "type": "Point", "coordinates": [ 139.72339, 35.628013 ] } },
{ "type": "Feature", "properties": { "施設名": "東品川保育園", "施設名(英語)": "Higashi-shinagawa Nursery Sch.", "カテゴリ": "教育・子どもの施設", "電話番号": "03-3472-5805", "郵便番号": "140-0002", "住所": "東京都品川区東品川1-34-9", "緯度": 35.619128, "経度": 139.746040, "説明(日本語)": "区立保育園", "説明(英語)": null, "FAX番号": null, "開所時間帯": null, "開所時刻": null, "閉所時刻": null, "利用料金": null, "画像URL": null, "サムネイル画像URL": null, "ホームページアドレス": null, "創設日": null, "創設者": null }, "geometry": { "type": "Point", "coordinates": [ 139.74604, 35.619128 ] } },
{ "type": "Feature", "properties": { "施設名": "東中延保育園", "施設名(英語)": "Higashi-nakanobu Nursery Sch.", "カテゴリ": "教育・子どもの施設", "電話番号": "03-3785-0418", "郵便番号": "142-0052", "住所": "東京都品川区東中延2-5-10", "緯度": 35.607806, "経度": 139.713810, "説明(日本語)": "区立保育園", "説明(英語)": null, "FAX番号": null, "開所時間帯": null, "開所時刻": null, "閉所時刻": null, "利用料金": null, "画像URL": null, "サムネイル画像URL": null, "ホームページアドレス": null, "創設日": null, "創設者": null }, "geometry": { "type": "Point", "coordinates": [ 139.71381, 35.607806 ] } },
{ "type": "Feature", "properties": { "施設名": "平塚保育園", "施設名(英語)": "Hiratsuka Nursery Sch.", "カテゴリ": "教育・子どもの施設", "電話番号": "03-3785-6770", "郵便番号": "142-0051", "住所": "東京都品川区平塚2-2-3", "緯度": 35.618791, "経度": 139.717410, "説明(日本語)": "区立保育園", "説明(英語)": null, "FAX番号": null, "開所時間帯": null, "開所時刻": null, "閉所時刻": null, "利用料金": null, "画像URL": null, "サムネイル画像URL": null, "ホームページアドレス": null, "創設日": null, "創設者": null }, "geometry": { "type": "Point", "coordinates": [ 139.71741, 35.618791 ] } },
{ "type": "Feature", "properties": { "施設名": "冨士見台保育園", "施設名(英語)": "Fujimidai Nursery Sch.", "カテゴリ": "教育・子どもの施設", "電話番号": "03-3785-7833", "郵便番号": "140-0015", "住所": "東京都品川区西大井6-1-15", "緯度": 35.600993, "経度": 139.714270, "説明(日本語)": "区立保育園", "説明(英語)": null, "FAX番号": null, "開所時間帯": null, "開所時刻": null, "閉所時刻": null, "利用料金": null, "画像URL": null, "サムネイル画像URL": null, "ホームページアドレス": null, "創設日": null, "創設者": null }, "geometry": { "type": "Point", "coordinates": [ 139.71427, 35.600993 ] } },
{ "type": "Feature", "properties": { "施設名": "二葉保育園", "施設名(英語)": "Futaba Nursery Sch.", "カテゴリ": "教育・子どもの施設", "電話番号": "03-3782-6786", "郵便番号": "142-0043", "住所": "東京都品川区二葉1-4-25", "緯度": 35.608023, "経度": 139.726760, "説明(日本語)": "区立保育園", "説明(英語)": null, "FAX番号": null, "開所時間帯": null, "開所時刻": null, "閉所時刻": null, "利用料金": null, "画像URL": null, "サムネイル画像URL": null, "ホームページアドレス": null, "創設日": null, "創設者": null }, "geometry": { "type": "Point", "coordinates": [ 139.72676, 35.608023 ] } },
{ "type": "Feature", "properties": { "施設名": "二葉つぼみ保育園", "施設名(英語)": "Futaba-tsubomi-en Nursery Sch.(Fataba-sukoyaka-en)", "カテゴリ": "教育・子どもの施設", "電話番号": "03-3785-3423", "郵便番号": "142-0043", "住所": "東京都品川区二葉1-3-40", "緯度": 35.607287, "経度": 139.725690, "説明(日本語)": "区立保育園", "説明(英語)": null, "FAX番号": null, "開所時間帯": null, "開所時刻": null, "閉所時刻": null, "利用料金": null, "画像URL": null, "サムネイル画像URL": null, "ホームページアドレス": null, "創設日": null, "創設者": null }, "geometry": { "type": "Point", "coordinates": [ 139.72569, 35.607287 ] } },
{ "type": "Feature", "properties": { "施設名": "南大井保育園", "施設名(英語)": "Minami-oi Nursery Sch.", "カテゴリ": "教育・子どもの施設", "電話番号": "03-3761-6543", "郵便番号": "140-0013", "住所": "東京都品川区南大井3-7-4", "緯度": 35.591614, "経度": 139.734370, "説明(日本語)": "区立保育園", "説明(英語)": null, "FAX番号": null, "開所時間帯": null, "開所時刻": null, "閉所時刻": null, "利用料金": null, "画像URL": null, "サムネイル画像URL": null, "ホームページアドレス": null, "創設日": null, "創設者": null }, "geometry": { "type": "Point", "coordinates": [ 139.73437, 35.591614 ] } },
{ "type": "Feature", "properties": { "施設名": "三ッ木保育園", "施設名(英語)": "Mitsugi Nursery Sch.", "カテゴリ": "教育・子どもの施設", "電話番号": "03-3491-8593", "郵便番号": "141-0033", "住所": "東京都品川区西品川1-9-18", "緯度": 35.613115, "経度": 139.729700, "説明(日本語)": "区立保育園", "説明(英語)": null, "FAX番号": null, "開所時間帯": null, "開所時刻": null, "閉所時刻": null, "利用料金": null, "画像URL": null, "サムネイル画像URL": null, "ホームページアドレス": null, "創設日": null, "創設者": null }, "geometry": { "type": "Point", "coordinates": [ 139.7297, 35.613115 ] } },
{ "type": "Feature", "properties": { "施設名": "南ゆたか保育園", "施設名(英語)": "Minami-yutaka Nursery Sch.", "カテゴリ": "教育・子どもの施設", "電話番号": "03-3781-3601", "郵便番号": "142-0042", "住所": "東京都品川区豊町4-17-21", "緯度": 35.606479, "経度": 139.720910, "説明(日本語)": "区立保育園", "説明(英語)": null, "FAX番号": null, "開所時間帯": null, "開所時刻": null, "閉所時刻": null, "利用料金": null, "画像URL": null, "サムネイル画像URL": null, "ホームページアドレス": null, "創設日": null, "創設者": null },